{"artist_id":"ARML3X41187FB35F2E","artist_location":"","artist_name":"Jason Mraz","duration":740.46649,"num_songs":1,"song_id":"SOSAZTX12A67ADBEE0","title":"Song For A Friend (Live From Montalvo)","year":2007}
{"artist_id":"AR5AMEV1187FB563FA","artist_location":"Philadelphia PA","artist_name":"A Sunny Day In Glasgow","duration":294.1122,"num_songs":1,"song_id":"SONUAMN12AB017C683","title":"Lists_ Plans","year":2007}
{"artist_id":"ARV0VRA1187FB5C825","artist_latitude":48.85692,"artist_location":"Paris, France","artist_longitude":2.34121,"artist_name":"Louise Attaque","duration":328.88118,"num_songs":1,"song_id":"SOMWPEA12AB0182352","title":"Comme on a dit","year":2000}
{"artist_id":"ARFPGJY1187B991B23","artist_latitude":35.17407,"artist_location":"Hollywood, TN","artist_longitude":-89.97544,"artist_name":"Willie Mabon","duration":189.98812,"num_songs":1,"song_id":"SOQAKDE12A8C142050","title":"Got To Have It","year":1993}
{"artist_id":"ARFYXXA1187B995861","artist_location":"","artist_name":"Joan Sutherland","duration":264.12363,"num_songs":1,"song_id":"SOSBSFC12AC960A17A","title":"Handel: Alcina: Tornami a vagheggiar","year":0}
{"artist_id":"ARUBDQW1187B98D775","artist_location":"","artist_name":"Kim English","duration":292.5971,"num_songs":1,"song_id":"SONYLMS12A58A7C76D","title":"Treat Me Right (Jon Cutler Album Version)","year":0}
{"artist_id":"AR7J49E1187FB486E6","artist_latitude":23.1168,"artist_location":"Havana, Cuba","artist_longitude":-82.38859,"artist_name":"Omara Portuondo","duration":243.722,"num_songs":1,"song_id":"SOJIFVH12A58A7A551","title":"La Ultima Noche","year":2003}
{"artist_id":"AR45UF61187B9B430A","artist_location":"","artist_name":"Sort Sol","duration":202.10893,"num_songs":1,"song_id":"SOLIRTZ12A8C13B9B1","title":"Shapes Of Summer (1997 Digital Remaster)","year":1987}
{"artist_id":"AR1W3IB1187FB40FCE","artist_latitude":59.91228,"artist_location":"Oslo, Norway","artist_longitude":10.74998,"artist_name":"Chrome Division","duration":295.54893,"num_songs":1,"song_id":"SONPAJK12A8C13489D","title":"Let's Hear It","year":2008}
{"artist_id":"AROSIKT1187B9A4D53","artist_location":"Las Vegas, NV","artist_name":"Escape The Fate","duration":259.39546,"num_songs":1,"song_id":"SOAOXTT12AB0182E23","title":"Harder Than You Know","year":2008}
{"artist_id":"AR6BJ1V1187B9AE3B7","artist_location":"London, England","artist_name":"Fleetwood Mac","duration":503.17016,"num_songs":1,"song_id":"SOHLTZK12A8C1425C1","title":"Come (Live PBS Version)","year":0}
{"artist_id":"ARPOYYE12592CD96DE","artist_location":"","artist_name":"Le Corps Mince De Françoise","duration":224.49587,"num_songs":1,"song_id":"SONHHUZ12AB0187442","title":"Something Golden","year":2009}
{"artist_id":"AR6CLFP1187B9ACB94","artist_location":"Sacramento, CA","artist_name":"Daniel Johnston","duration":167.57506,"num_songs":1,"song_id":"SOARQTE12A8C1358F7","title":"Peace & Tranquility","year":1982}
{"artist_id":"ARKHUDU1187B9A66EA","artist_location":"","artist_name":"Youthful Praise featuring J.J. Hairston","duration":373.75955,"num_songs":1,"song_id":"SOCIBRD12AB017DE43","title":"Jesus Reigns","year":0}
{"artist_id":"ARDZMPZ1257509B5B8","artist_location":"NY - Upstate NY","artist_name":"Real Estate","duration":272.43057,"num_songs":1,"song_id":"SOVIKSA12AB018E08E","title":"Younger Than Yesterday","year":2010}
{"artist_id":"ARTNHBW1187B9A5482","artist_location":"Manchester, England","artist_name":"The Stone Roses","duration":289.54077,"num_songs":1,"song_id":"SOYHSNW12A8AE461CA","title":"Shoot You Down","year":1989}
{"artist_id":"ARHT48W1187B9ACEBA","artist_latitude":51.48126,"artist_location":"Cardiff, Wales","artist_longitude":-3.18067,"artist_name":"Cerys Matthews","duration":223.65995,"num_songs":1,"song_id":"SOBBPKU12A8C1431A1","title":"Y Corryn ar Pry","year":0}
{"artist_id":"ARK0TRD1187FB3BDE5","artist_latitude":51.45102,"artist_location":"Eltham, England","artist_longitude":0.05102,"artist_name":"Bob Hope","duration":303.67302,"num_songs":1,"song_id":"SOVLSWM12A6D4F9677","title":"Bob Ain't Clark Gable","year":0}
{"artist_id":"AR0N9BV1187FB3AD01","artist_latitude":41.76332,"artist_location":"Hartford, CT","artist_longitude":-72.67407,"artist_name":"Gene Pitney","duration":146.9122,"num_songs":1,"song_id":"SOWOTCY12AC907329A","title":"For Me This Is Happy","year":0}
{"artist_id":"AR0SRVL1187B98A9C3","artist_latitude":33.59233,"artist_location":"Lubbock, TX","artist_longitude":-101.85587,"artist_name":"Mac Davis","duration":173.7922,"num_songs":1,"song_id":"SOYMHOU12A8C1309A8","title":"One Hell Of A Woman","year":1974}
{"artist_id":"ARBCZNY1187B98F867","artist_latitude":41.88415,"artist_location":"Chicago, IL","artist_longitude":-87.63241,"artist_name":"Number One Cup","duration":262.76526,"num_songs":1,"song_id":"SOBVIPU12A67AD92EA","title":"The Low Sparks","year":1999}
{"artist_id":"ARQ55A41187B9A271A","artist_location":"","artist_name":"Scott Henderson","duration":477.23057,"num_songs":1,"song_id":"SOQFJBQ12AB0184E76","title":"Smelly Ol' Dog Blues (LP Version)","year":1994}
{"artist_id":"ARDHGXB122BCFCD697","artist_location":"New Orleans LA","artist_name":"The Generationals","duration":225.61914,"num_songs":1,"song_id":"SODMFKU12AB01846F6","title":"Faces In The Dark","year":2009}
{"artist_id":"ARLATCO1187B9AF692","artist_latitude":34.05349,"artist_location":"Los Angeles, CA","artist_longitude":-118.24532,"artist_name":"Time Again","duration":120.81587,"num_songs":1,"song_id":"SOBSHQV12A8C136CDA","title":"Day Like This","year":2008}
{"artist_id":"AR4I43H1187B9A580F","artist_location":"","artist_name":"Giant Squid","duration":448.31302,"num_songs":1,"song_id":"SORXTQZ12AB0184D53","title":"La Brea Tar Pits (Pseudomonas Putida)","year":2009}
{"artist_id":"ARENMIP1187FB5638D","artist_latitude":54.31407,"artist_location":"UK","artist_longitude":-2.23001,"artist_name":"Robbie Williams","duration":255.26812,"num_songs":1,"song_id":"SOBIZYU12A6D4F66C8","title":"Random Acts Of Kindness","year":2005}
{"artist_id":"AROBOIW11F4C84748F","artist_location":"","artist_name":"Swingin' Utters/Youth Brigade","duration":199.23546,"num_songs":1,"song_id":"SOPMHBX12A8AE47391","title":"'39 (Swingin' Utters)","year":0}
{"artist_id":"ARTYXEZ1187FB54560","artist_location":"","artist_name":"The Airborne Toxic Event","duration":303.56853,"num_songs":1,"song_id":"SOYRFUE12AB0183E5C","title":"Sometime Around Midnight","year":2008}
{"artist_id":"ARF7STJ1187B98D37E","artist_location":"Atlanta GA","artist_name":"Diamond / Terry Walker","duration":302.2624,"num_songs":1,"song_id":"SOPHNDB12AB017C08B","title":"Love At First Sight","year":0}
{"artist_id":"AR6A7W11187B9B833E","artist_location":"Belfast, Northern Ireland","artist_name":"The Emotions","duration":544.62649,"num_songs":1,"song_id":"SOBRLPR12A8C145A3F","title":"Peace Be Still","year":0}
{"artist_id":"ARA6TPN1187B9916D8","artist_latitude":34.74865,"artist_location":"Little Rock, AR","artist_longitude":-92.27449,"artist_name":"American Princes","duration":175.22893,"num_songs":1,"song_id":"SOYURTK12AB01801ED","title":"In The Dark","year":0}
{"artist_id":"ARL2Q8V1187FB4920C","artist_latitude":-6.17144,"artist_location":"Jakarta, Indonesia","artist_longitude":106.82782,"artist_name":"Anggun","duration":219.6371,"num_songs":1,"song_id":"SOTCWZU12AB0181FB4","title":"Si Je T'emmène","year":0}
{"artist_id":"AR2WN631187B99DA0B","artist_location":"","artist_name":"The Randy Rogers Band","duration":225.09669,"num_songs":1,"song_id":"SOVPCNZ12A67AD94E4","title":"You Could Change My Mind","year":0}
{"artist_id":"AR12G7A1187B994BF6","artist_latitude":25.72898,"artist_location":"Miami, FL","artist_longitude":-80.23742,"artist_name":"Deborah Harry","duration":153.75628,"num_songs":1,"song_id":"SONVHWV12AC4688D21","title":"Comic Books","year":1989}
{"artist_id":"ARZXNFV1187B9BA2CD","artist_location":"Lettsworth, LA","artist_name":"Buddy Guy","duration":270.47138,"num_songs":1,"song_id":"SOBLMFE12A6D4FCCAA","title":"She Suits Me To A T","year":1982}
{"artist_id":"ARG1X0Q1187FB57C48","artist_location":"","artist_name":"Kivimetsän Druidi","duration":276.92363,"num_songs":1,"song_id":"SOUYQSG12AB018766C","title":"Halls Of Shadowheart","year":2008}
{"artist_id":"ARIWKUS1187FB55354","artist_location":"New York, NY","artist_name":"Coheed and Cambria","duration":374.96118,"num_songs":1,"song_id":"SOIPTIG12A8C13E99E","title":"Welcome Home","year":2005}
{"artist_id":"ARXTVRP1187FB4B8D4","artist_latitude":41.88415,"artist_location":"Chicago, IL","artist_longitude":-87.63241,"artist_name":"88 Fingers Louie","duration":86.80444,"num_songs":1,"song_id":"SOQJJUW12A58A75C83","title":"Elmer's","year":1998}
{"artist_id":"ARDXWVZ1187B9B52F1","artist_latitude":40.71455,"artist_location":"New York","artist_longitude":-74.00712,"artist_name":"Michael Whalen","duration":317.70077,"num_songs":1,"song_id":"SOAULBO12A58A7A2F8","title":"A New Heart","year":2004}
{"artist_id":"ARJDHQE11F4C83D7DE","artist_location":"Mooringsport, Louisiana","artist_name":"Leadbelly","duration":159.76444,"num_songs":1,"song_id":"SOBLFVI12A8C13B496","title":"Fannin Street","year":0}
{"artist_id":"ARAS3371187FB4CFB0","artist_latitude":51.50632,"artist_location":"London, England","artist_longitude":-0.12714,"artist_name":"All Saints","duration":237.03465,"num_songs":1,"song_id":"SONLNAC12A67ADBEDB","title":"On And On","year":2006}
{"artist_id":"ARNDL191187FB51583","artist_location":"Seattle, USA","artist_name":"Jimi Hendrix","duration":528.14322,"num_songs":1,"song_id":"SOIDJZY12A6701DEF7","title":"Voodoo Chile Blues","year":1994}
{"artist_id":"ARGSXDC1187FB3EFC4","artist_location":"Sweden","artist_name":"Amon Amarth","duration":266.60526,"num_songs":1,"song_id":"SOODLZE12AB0185525","title":"Risen From The Sea (2000)","year":2001}
{"artist_id":"AR0NH5R1187B9A47C9","artist_latitude":54.99241,"artist_location":"Londonderry","artist_longitude":-7.31923,"artist_name":"The Divine Comedy","duration":327.31383,"num_songs":1,"song_id":"SOJQBFB12A6D4F7372","title":"Charge","year":1996}
{"artist_id":"ARLNLD51187B98DEC5","artist_location":"Chicago, IL","artist_name":"Disturbed","duration":223.4771,"num_songs":1,"song_id":"SODEXNX12A6701F2D4","title":"Dehumanized (Live Version)","year":0}
{"artist_id":"AR6OL631187FB49241","artist_location":"California - LA","artist_name":"Colby O'Donis","duration":246.96118,"num_songs":1,"song_id":"SOBWFNW12AB0182A6D","title":"The Difference","year":2008}
{"artist_id":"ARK54EG1187FB4818B","artist_latitude":53.4796,"artist_location":"Manchester, England","artist_longitude":-2.24881,"artist_name":"Muslimgauze","duration":524.43383,"num_songs":1,"song_id":"SOCYZPH12A58A7DC7A","title":"Fakir","year":1992}
{"artist_id":"ARV0VRA1187FB5C825","artist_latitude":48.85692,"artist_location":"Paris, France","artist_longitude":2.34121,"artist_name":"Louise Attaque","duration":235.91138,"num_songs":1,"song_id":"SOWADCU12AB0182356","title":"La Plume","year":2000}
{"artist_id":"ARSX2ZI1187FB39714","artist_latitude":18.11526,"artist_location":"Davey Town, Jamaica","artist_longitude":-77.27348,"artist_name":"Luciano","duration":239.12444,"num_songs":1,"song_id":"SOIHQON12AB018234A","title":"My Papa","year":2004}
{"artist_id":"AR94ZOI1187FB46BDA","artist_latitude":32.35006,"artist_location":"Vicksburg, MS","artist_longitude":-90.88153,"artist_name":"Willie Dixon","duration":297.03791,"num_songs":1,"song_id":"SOTPDLQ12AB01834D7","title":"Spoonful","year":1970}
{"artist_id":"AREIPJX1187B99464E","artist_location":"","artist_name":"In Flagranti","duration":233.74322,"num_songs":1,"song_id":"SOEILOM12AC468AF60","title":"Teaching Children How To Swear","year":2007}
{"artist_id":"ARE03EE1187B9BA249","artist_latitude":35.22052,"artist_location":"Frayser, TN","artist_longitude":-90.01479,"artist_name":"Johnny Shines","duration":163.99628,"num_songs":1,"song_id":"SOURGKA12A8C142A7C","title":"Joliet Blues","year":0}
{"artist_id":"ARZO9UQ1187FB4D261","artist_latitude":49.25953,"artist_location":"Creil, France","artist_longitude":2.47547,"artist_name":"Alliance Ethnik","duration":43.83302,"num_songs":1,"song_id":"SOCGFUU12A6D4F81F2","title":"Je Conjugue","year":0}
{"artist_id":"ARIZDPQ122988F25C8","artist_latitude":38.8991,"artist_location":"Washington","artist_longitude":-77.029,"artist_name":"Comunalien","duration":124.65587,"num_songs":1,"song_id":"SOQOCTR12AC4686F4B","title":"Bottom of the World","year":0}
{"artist_id":"ARLUAK21187B9B785A","artist_location":"","artist_name":"Ziggy Marley And The Melody Makers","duration":207.20281,"num_songs":1,"song_id":"SOWRNMP12A8C13E4FD","title":"What's True","year":0}
{"artist_id":"ARV3CRH1187B9A1B21","artist_location":"Berkeley, CA","artist_name":"Green Day","duration":185.3122,"num_songs":1,"song_id":"SOCQNED12AB018D4FF","title":"Know Your Enemy [Live]","year":2009}
{"artist_id":"ARYP0A31187B989D70","artist_location":"","artist_name":"Petalpusher","duration":302.47138,"num_songs":1,"song_id":"SOXVHLU12A6D4F7EAB","title":"Rely On Me (Jay's Bodega Vocal)","year":2001}
{"artist_id":"ARZ5TAT1187B992833","artist_latitude":53.7946,"artist_location":"Burnley, England","artist_longitude":-2.24705,"artist_name":"Anne Savage","duration":518.922,"num_songs":1,"song_id":"SOXTISB12AB018DC9D","title":"Hellraiser","year":2002}
{"artist_id":"ARHBIPG11C8A417952","artist_latitude":41.39476,"artist_location":"Uzbekistan","artist_longitude":64.56445,"artist_name":"From.UZ","duration":196.44036,"num_songs":1,"song_id":"SOWKTJK12AC9071B05","title":"Bell of the Earth","year":2009}
{"artist_id":"ARI3P8A1187B9B4AE3","artist_latitude":31.1689,"artist_location":"Texas","artist_longitude":-100.07715,"artist_name":"Dangerous Toys","duration":301.08689,"num_songs":1,"song_id":"SOILXZO12A58A7C8EE","title":"Teas'n Pleas'n","year":2003}
{"artist_id":"ARYXNP71187FB38034","artist_location":"","artist_name":"Country Joe & The Fish","duration":222.6673,"num_songs":1,"song_id":"SOWZOXF12AB017CF70","title":"I Feel Like I'm Fixin To","year":0}
{"artist_id":"ARGE26T1187B9891C8","artist_latitude":40.50719,"artist_location":"Altoona, PA","artist_longitude":-78.3989,"artist_name":"Paul Winter","duration":44.40771,"num_songs":1,"song_id":"SOUFICU12AC4685180","title":"Sun Singer Theme","year":0}
{"artist_id":"ARR9WGA1187B992554","artist_location":"DENVER, Colorado","artist_name":"98º","duration":248.92036,"num_songs":1,"song_id":"SOINCVD12A58A7A850","title":"The Christmas Song","year":1999}
{"artist_id":"AR9BVRM1187FB51139","artist_latitude":32.67828,"artist_location":"Georgia","artist_longitude":-83.22295,"artist_name":"Hallows Eve","duration":150.25587,"num_songs":1,"song_id":"SOPAFXF12AB018369A","title":"The Mighty Decibal","year":0}
{"artist_id":"AR49A9P1187FB3BBBF","artist_latitude":26.27249,"artist_location":"Coral Springs, Florida","artist_longitude":-80.25306,"artist_name":"Saigon Kick","duration":233.66485,"num_songs":1,"song_id":"SOTAMUT12A8C13757E","title":"ICU","year":0}
{"artist_id":"AR9JET41187FB3DE77","artist_latitude":29.28437,"artist_location":"MORRISTON, Florida","artist_longitude":-82.44532,"artist_name":"Goldie","duration":720.87465,"num_songs":1,"song_id":"SOAONPI12A6D4F8A49","title":"Sea Of Tears","year":0}
{"artist_id":"AR2GAOJ1187FB57B68","artist_location":"","artist_name":"Esbjörn Svensson Trio","duration":409.88689,"num_songs":1,"song_id":"SOVGUIL12A8151E16F","title":"The Face Of Love","year":2000}
{"artist_id":"ARJ68391187FB3F988","artist_location":"Coventry (UK)","artist_name":"Clint Mansell","duration":69.48526,"num_songs":1,"song_id":"SOOOEJN12AB01850B4","title":"You Have No Grace","year":2002}
{"artist_id":"ARK1LQN1187B98F4D1","artist_location":"","artist_name":"Farmers Boys","duration":200.6722,"num_songs":1,"song_id":"SOEOFHE12A6BD546EA","title":"In The Country (From 'Cinderella')","year":0}
{"artist_id":"ARHD7YH1187FB4E0BA","artist_location":"","artist_name":"Kid Blue","duration":459.85914,"num_songs":1,"song_id":"SOPLHEW12AB018621A","title":"Nothing To Lose (James Talk Remix)","year":2007}
{"artist_id":"ARBWLLH1187B99497C","artist_location":"Salisbury, England","artist_name":"Duncan James","duration":243.48689,"num_songs":1,"song_id":"SONTIIM12A6D4F8101","title":"I Come Alive","year":2006}
{"artist_id":"ARB9TN21187FB568DA","artist_latitude":37.17039,"artist_location":"Granada, Spain","artist_longitude":-3.60542,"artist_name":"Amparanoia","duration":242.78159,"num_songs":1,"song_id":"SOVPHNO12A6D4F7EF2","title":"Iluminando","year":2003}
{"artist_id":"AR14LJF1187FB38AD6","artist_location":"Sacramento, CA","artist_name":"Eric Marienthal","duration":243.9571,"num_songs":1,"song_id":"SOHSISW12A8C1419B5","title":"Lefty's Lounge","year":2001}
{"artist_id":"ARPQA4M1187B9B12F4","artist_latitude":27.94653,"artist_location":"Tampa, FL","artist_longitude":-82.45927,"artist_name":"Windsor For The Derby","duration":474.72281,"num_songs":1,"song_id":"SOWLYWF12A6D4F5421","title":"Two","year":1996}
{"artist_id":"AR6RG8J1187B9A815C","artist_latitude":51.50632,"artist_location":"London","artist_longitude":-0.12714,"artist_name":"The Frantic","duration":146.15465,"num_songs":1,"song_id":"SOPGSVK12A8C13CD10","title":"Rock & Roll Renegade","year":0}
{"artist_id":"AR6BKNZ1187B993CBA","artist_latitude":27.63885,"artist_location":"Vero Beach, FL","artist_longitude":-80.39422,"artist_name":"Discount","duration":153.46893,"num_songs":1,"song_id":"SOOTCNU12A8C13F77E","title":"City Bleach","year":1997}
{"artist_id":"ARUOTD91187B99BF1B","artist_latitude":44.63548,"artist_location":"Albany, OR","artist_longitude":-123.10776,"artist_name":"Falling Up","duration":215.84934,"num_songs":1,"song_id":"SOUJZAW12A6BD546A7","title":"Searchlights","year":2005}
{"artist_id":"ARPUEAL1187FB57814","artist_location":"","artist_name":"Gov't Mule","duration":378.95791,"num_songs":1,"song_id":"SOPWTLC12AB0184E34","title":"Broke Down On The Brazos (Album)","year":2009}
{"artist_id":"AR3MSAN1187B98F06B","artist_latitude":33.74831,"artist_location":"Atlanta, GA","artist_longitude":-84.39111,"artist_name":"OutKast","duration":366.39302,"num_songs":1,"song_id":"SOTEZMZ12A8C138355","title":"Call Of Da Wild","year":1994}
{"artist_id":"ARUYIJ01187FB51CF6","artist_latitude":45.51179,"artist_location":"Portland, OR","artist_longitude":-122.67563,"artist_name":"The Kingsmen","duration":75.33669,"num_songs":1,"song_id":"SOKYRNE12AB017CF58","title":"Rock Of Ages","year":0}
{"artist_id":"ARIGX341187B9B15CC","artist_latitude":53.4796,"artist_location":"Manchester, England","artist_longitude":-2.24881,"artist_name":"Amplifier","duration":297.42975,"num_songs":1,"song_id":"SOUJPAN12A8C146A06","title":"For Marcia","year":0}
{"artist_id":"ARHVQU31187B9B7623","artist_latitude":42.33168,"artist_location":"Detroit, MI","artist_longitude":-83.04792,"artist_name":"Mary Wells","duration":173.13914,"num_songs":1,"song_id":"SOXKMRU12AF72AA5F7","title":"Bye Bye Baby","year":1961}
{"artist_id":"ARBOKJ51187FB43BFE","artist_location":"","artist_name":"The Johnny Shines Blues Band","duration":206.23628,"num_songs":1,"song_id":"SOHGZRM12A5891EA3B","title":"If I Get Lucky","year":2002}
{"artist_id":"ARCHUCU1187B9A53A7","artist_location":"","artist_name":"The Proclaimers","duration":184.42404,"num_songs":1,"song_id":"SOUACZI12A6D4F7C29","title":"The Joyful Kilmarnock Blues","year":1987}
{"artist_id":"AR91PUO1187FB39361","artist_latitude":54.31407,"artist_location":"North Weazy, UK","artist_longitude":-2.23001,"artist_name":"Say No More","duration":206.15791,"num_songs":1,"song_id":"SOOCARR12A58A7E90A","title":"Honestly","year":2008}
{"artist_id":"ARO9ZL51187B9B50D9","artist_location":"Allentown, PA","artist_name":"Rick Braun","duration":261.04118,"num_songs":1,"song_id":"SORRDHP12AB017AD11","title":"Nightfall (LP Version)","year":0}
{"artist_id":"AR3RMO51187B994B41","artist_latitude":49.26044,"artist_location":"Vancouver, Canada","artist_longitude":-123.11403,"artist_name":"Moka Only","duration":173.00853,"num_songs":1,"song_id":"SOCLCMN12A8C13B704","title":"Ice Cream","year":0}
{"artist_id":"AR7W34G1187B994FA3","artist_latitude":47.37706,"artist_location":"Zurich, Switzerland","artist_longitude":8.53955,"artist_name":"Liliput","duration":203.62404,"num_songs":1,"song_id":"SOMZYUW12AB01890DF","title":"In A Mess","year":1982}
{"artist_id":"ARWNWCW1187FB52E6F","artist_location":"Boston, MA","artist_name":"Susan Tedeschi","duration":171.59791,"num_songs":1,"song_id":"SONWBKJ12A8C137908","title":"You Got The Silver","year":2005}
{"artist_id":"AR65K7A1187FB4DAA4","artist_location":"","artist_name":"Beyoncé","duration":230.55628,"num_songs":1,"song_id":"SOYNBBT12A8AE46457","title":"Irreplaceable (Irreemplazable)","year":2007}
{"artist_id":"AR8C70A1187B9B718F","artist_latitude":40.11727,"artist_location":"Urbana","artist_longitude":-88.20449,"artist_name":"Braid","duration":135.91465,"num_songs":1,"song_id":"SOYEUUY12AB018FE98","title":"Garner Hall Music Room","year":1995}
{"artist_id":"AR92HWF1187FB58107","artist_latitude":62.19845,"artist_location":"SWEDEN","artist_longitude":17.55142,"artist_name":"Lions Share","duration":191.60771,"num_songs":1,"song_id":"SOSTVRB12AB018CBDD","title":"Full Metal Jacket","year":2009}
{"artist_id":"ARM1OTS1187FB3FF45","artist_location":"Utah","artist_name":"Stephanie Smith","duration":210.85995,"num_songs":1,"song_id":"SOXMFTU12A8C136302","title":"Not Afraid (Album Version)","year":0}
{"artist_id":"AR3GE071187B9A6D71","artist_latitude":43.64856,"artist_location":"Toronto","artist_longitude":-79.38533,"artist_name":"Johannes Linstead","duration":294.66077,"num_songs":1,"song_id":"SOAVMSM12AB017CC5C","title":"Guayabera","year":2003}
{"artist_id":"AR6AB7G1187B9AD8A6","artist_location":"","artist_name":"Rob De Nijs","duration":221.88363,"num_songs":1,"song_id":"SOYFLYQ12A8C1324FE","title":"Brown Baby (2007 Digital Remaster)","year":0}
{"artist_id":"ARDYZU51187FB469B2","artist_location":"Washington, D.C.","artist_name":"Amii Stewart","duration":288.26077,"num_songs":1,"song_id":"SOXDJZW12AB0189F53","title":"Song for Elena","year":1990}
{"artist_id":"ARIXE8X1187B999C7B","artist_latitude":39.76691,"artist_location":"Indianapolis, IN","artist_longitude":-86.14996,"artist_name":"Wes Montgomery","duration":210.9122,"num_songs":1,"song_id":"SOBOFTU12A6D4F7E92","title":"Leila","year":1990}
{"artist_id":"ARECM2B1187FB58217","artist_latitude":40.99471,"artist_location":"Pennsylvania","artist_longitude":-77.60454,"artist_name":"Natalie Walker","duration":179.9571,"num_songs":1,"song_id":"SOWMAAS12A8C13B0EF","title":"Rest Easy","year":2006}
{"artist_id":"ARBZ5F71187B9A5860","artist_latitude":36.99462,"artist_location":"Bowling Green, KY","artist_longitude":-86.44558,"artist_name":"Sam Bush","duration":196.80608,"num_songs":1,"song_id":"SODOFJA12AB0180FEB","title":"Harbor Docks","year":0}
{"artist_id":"AR3B2UY1187B99B19F","artist_location":"","artist_name":"Mamonas Assassinas","duration":203.25832,"num_songs":1,"song_id":"SOOYMHJ12A8AE48F73","title":"Lá Vem O Alemão","year":1995}
{"artist_id":"AROIHOI122988FEB8E","artist_location":"","artist_name":"Mario Rosenstock","duration":250.30485,"num_songs":1,"song_id":"SOIVGSZ12AB017F898","title":"Bertie's Pets (Bonus Material)","year":0}
{"artist_id":"AROHGBX1187FB4C799","artist_latitude":52.47859,"artist_location":"Birmingham, England","artist_longitude":-1.9086,"artist_name":"Au Pairs","duration":260.96281,"num_songs":1,"song_id":"SONRYJC12AB0180DF8","title":"Shakedown","year":1982}
{"artist_id":"ARCN3ZX1187B98C2CC","artist_latitude":41.38572,"artist_location":"Barcelona, Spain","artist_longitude":2.17005,"artist_name":"Antonio Orozco","duration":211.722,"num_songs":1,"song_id":"SOJNZIU12AB01845F8","title":"Caterine","year":2004}
{"artist_id":"ARXLX5L1187FB47BED","artist_location":"","artist_name":"Crazy Horse","duration":133.3024,"num_songs":1,"song_id":"SOCRNKC12A6D4FAE9D","title":"Dance_ Dance_ Dance  (Album Version)","year":0}
{"artist_id":"ARPKAUL1187B9A8F82","artist_latitude":40.14323,"artist_location":"New Jersey","artist_longitude":-74.72671,"artist_name":"Dr. Hook","duration":172.90404,"num_songs":1,"song_id":"SOWFFNS12A8C134A66","title":"Penicillin Penny","year":1975}
{"artist_id":"AR6472N1187FB4D003","artist_location":"","artist_name":"Ryan Adams & The Cardinals","duration":170.44853,"num_songs":1,"song_id":"SOWNTQC12A67ADADA8","title":"Withering Heights","year":2005}
{"artist_id":"ARM6SZL1187FB3E800","artist_latitude":31.1689,"artist_location":"Puduka, TX","artist_longitude":-100.07715,"artist_name":"Alvis Wayne","duration":138.10893,"num_songs":1,"song_id":"SOEWYFK12A8151B9CF","title":"Rockabilly Daddy","year":0}
{"artist_id":"ARDWZUE12454A2E6B1","artist_location":"","artist_name":"Diomedes Diaz;Juancho Rois","duration":258.32444,"num_songs":1,"song_id":"SOQKDEG12AB0182613","title":"Al Final Del Sendero","year":0}
{"artist_id":"AR548LF1187FB4ADDF","artist_latitude":42.50382,"artist_location":"Italy &amp; London","artist_longitude":12.57347,"artist_name":"Italoboyz","duration":477.83138,"num_songs":1,"song_id":"SOAHYWV12A58A7AA0C","title":"L'Anagramme","year":0}
{"artist_id":"ARZEXRB122988FAD61","artist_latitude":37.77916,"artist_location":"California - SF","artist_longitude":-122.42005,"artist_name":"Renz Julian","duration":240.19546,"num_songs":1,"song_id":"SOSOXXE12AB0187560","title":"Clap_ Clap","year":0}
{"artist_id":"ARC8CQZ1187B98DECA","artist_location":"Galveston, TX","artist_name":"Jack Johnson","duration":196.20526,"num_songs":1,"song_id":"SOGCDYR12AC961854A","title":"You And Your Heart","year":2010}
{"artist_id":"ARDFGHM125094117F7","artist_location":"","artist_name":"David Coverdale & Whitesnake","duration":334.8371,"num_songs":1,"song_id":"SOKRDOT12A6310EEE5","title":"Woman Trouble Blues","year":0}
{"artist_id":"ARGOBXZ11F50C4F0EB","artist_location":"","artist_name":"The J.J. Paradise Players Club","duration":263.65342,"num_songs":1,"song_id":"SOHQZCU12A8AE49138","title":"House of torment","year":0}
{"artist_id":"ARIMKO91187FB37DCE","artist_location":"Germany","artist_name":"Heaven Shall Burn","duration":284.9171,"num_songs":1,"song_id":"SOBEQZL12A67ADE7E6","title":"To Harvest The Storm","year":2004}
{"artist_id":"AR5NYWW1187B993C1A","artist_latitude":28.55019,"artist_location":"Guerrero, Mexico","artist_longitude":-107.48486,"artist_name":"Chavela Vargas","duration":174.91546,"num_songs":1,"song_id":"SOYYLAK12A8C13A580","title":"Volver","year":0}
{"artist_id":"ARGTUWC1187B9904A0","artist_location":"","artist_name":"Susana Seivane","duration":294.05995,"num_songs":1,"song_id":"SOXRRIP12AC4686877","title":"Mazurcas das Rías Baixas","year":2010}
{"artist_id":"AR3JWN91187FB38C2C","artist_latitude":51.45238,"artist_location":"Reading, England","artist_longitude":-0.99603,"artist_name":"Luke Slater","duration":405.002,"num_songs":1,"song_id":"SOLLCMW12A8C13880A","title":"Engine One","year":1997}
{"artist_id":"ARAEWUS124BAE73188","artist_location":"","artist_name":"Armed For Apocalypse","duration":345.23383,"num_songs":1,"song_id":"SOVKGNW12A58A77C33","title":"We Fell from the Bottom","year":2009}
{"artist_id":"ARRA0I71187B99F1A9","artist_latitude":51.10804,"artist_location":"Wroclaw, Poland","artist_longitude":17.0267,"artist_name":"Skalpel","duration":264.01914,"num_songs":1,"song_id":"SOOAMUJ12AB0186F0A","title":"Flying Officer","year":2005}
{"artist_id":"AR6LM3I1187B9B2B34","artist_latitude":51.50632,"artist_location":"London, England","artist_longitude":-0.12714,"artist_name":"Cornershop","duration":278.46485,"num_songs":1,"song_id":"SOIERAA12A8C134F90","title":"Good Ships","year":1997}
{"artist_id":"AR6KK741187B98C9E9","artist_location":"New Orleans, LA","artist_name":"Roy Brown","duration":163.83955,"num_songs":1,"song_id":"SOZEQVC12AC468E38B","title":"Love Don't Love Nobody","year":0}
{"artist_id":"AR1JGQT1187FB56878","artist_latitude":30.23513,"artist_location":"Rayne, LA","artist_longitude":-92.26831,"artist_name":"Jo-El Sonnier","duration":168.04526,"num_songs":1,"song_id":"SOICIZT12A6D4F6751","title":"Les Grande Bois","year":0}
{"artist_id":"AR9MOXS1187B98AF78","artist_location":"","artist_name":"Robben Ford & The Blue Line","duration":200.01914,"num_songs":1,"song_id":"SOOOEKE12A6D4FBA33","title":"The Miller's Son","year":1995}
{"artist_id":"AR4OH581187B9B7157","artist_location":"Atlanta, GA","artist_name":"Jagged Edge","duration":219.76771,"num_songs":1,"song_id":"SOFYRDR12A8C133F7D","title":"The Way That You Talk","year":1997}
{"artist_id":"ART6WIH1187FB3A070","artist_latitude":39.73926,"artist_location":"Illinois","artist_longitude":-89.50409,"artist_name":"Chicago Afrobeat Project","duration":442.67057,"num_songs":1,"song_id":"SOLYPIN12A58A7B02B","title":"BSCG2","year":0}
{"artist_id":"AROWH4C1187B9B11CB","artist_location":"Newnan, GA","artist_name":"Alan Jackson","duration":168.80281,"num_songs":1,"song_id":"SOFXDFB12AB0188F32","title":"Hard Hat And A Hammer","year":2010}
{"artist_id":"ARRH52A1187B9ABAF0","artist_latitude":32.7716,"artist_location":"Philadelphia, MS","artist_longitude":-89.11774,"artist_name":"Otis Rush","duration":267.49342,"num_songs":1,"song_id":"SORQEZL12A8C142803","title":"Lonely Man","year":2006}
{"artist_id":"ARU35NK1187FB46CFD","artist_location":"","artist_name":"Methods Of Mayhem / Scott Kirkland","duration":199.31383,"num_songs":1,"song_id":"SOIIZIX12A6D4F799D","title":"Narcotic","year":1999}
{"artist_id":"AR4GJ3V1187FB4245B","artist_latitude":39.75911,"artist_location":"Dayton, OH","artist_longitude":-84.19444,"artist_name":"Zapp","duration":244.53179,"num_songs":1,"song_id":"SOXBRRT12A6D4FADBE","title":"Rock Star (LP Version)","year":0}
{"artist_id":"ARDIHUE1187FB5783D","artist_latitude":50.82821,"artist_location":"Brighton, England","artist_longitude":-0.13449,"artist_name":"Electrelane","duration":287.37261,"num_songs":1,"song_id":"SOVXUFV12AF729DB98","title":"At Sea","year":2007}
{"artist_id":"ARLYMXD1187B99059A","artist_location":"","artist_name":"Isobel Campbell & Mark Lanegan","duration":223.79057,"num_songs":1,"song_id":"SOZCQRY12AB01851B0","title":"Dusty Wreath","year":2006}
{"artist_id":"ARKKPRW1187FB4D81E","artist_latitude":38.99792,"artist_location":"Colorado","artist_longitude":-105.55096,"artist_name":"Equilibrium","duration":219.03628,"num_songs":1,"song_id":"SOXCDGN12A8C140A48","title":"Prolog auf Erden","year":0}
{"artist_id":"ARY2Z6Y1187B9BA126","artist_location":"New York City","artist_name":"Scissor Sisters","duration":166.53016,"num_songs":1,"song_id":"SOAEGIH12A6D4F8B51","title":"I Can't Decide","year":2006}
{"artist_id":"ARUNHUJ1187FB4C13E","artist_location":"London","artist_name":"The Black Ghosts","duration":202.31791,"num_songs":1,"song_id":"SOCFCMM12A58A7C92C","title":"Until It Comes Again","year":2008}
{"artist_id":"AR3DWG81187B98E3FA","artist_latitude":40.68869,"artist_location":"Bedford-Stuyvesant, NY","artist_longitude":-73.93918,"artist_name":"Papoose","duration":46.47138,"num_songs":1,"song_id":"SODSOLK12AB018BB66","title":"Intro","year":2006}
{"artist_id":"ARTC5DW1187B98FCF2","artist_latitude":51.50632,"artist_location":"London, England","artist_longitude":-0.12714,"artist_name":"Plump DJs","duration":348.55138,"num_songs":1,"song_id":"SOOWXMG12A8C13D0A7","title":"Contact 00","year":2003}
{"artist_id":"ARTYGVZ11E8F5C0D0D","artist_location":"","artist_name":"Jason Reeves","duration":356.54485,"num_songs":1,"song_id":"SOKBJYJ12AB01855AD","title":"Never Find Again. (Album Version)","year":0}
{"artist_id":"ARU8QMU1187FB5B3F9","artist_latitude":56.65286,"artist_location":"Scotland","artist_longitude":-3.99667,"artist_name":"Arab Strap","duration":324.44036,"num_songs":1,"song_id":"SODTLTS12A6701D68A","title":"The Drinking Eye","year":1999}
{"artist_id":"ARIFGKC1187B9B04D5","artist_location":"Steubenville, OH","artist_name":"Dean Martin","duration":161.64526,"num_songs":1,"song_id":"SOBPOWR12A58A770E3","title":"I Can't Help It","year":2002}
{"artist_id":"ARYFXQ21187FB4DAEF","artist_latitude":27.53092,"artist_location":"Laredo, TX","artist_longitude":-99.502,"artist_name":"Poncho Sanchez","duration":307.09506,"num_songs":1,"song_id":"SOGOISU12AAF3B27B1","title":"Co Co My My","year":2002}
{"artist_id":"AR0WDCQ1187FB3D9AB","artist_location":"","artist_name":"Texas Tornados","duration":168.12363,"num_songs":1,"song_id":"SOKMIIS12AB018D807","title":"Just Can't Fake It (LP Version)","year":0}
{"artist_id":"AR1N3PB1187B9B25C1","artist_location":"","artist_name":"Andres Calamaro","duration":271.59465,"num_songs":1,"song_id":"SOOQCSS12AB0182A99","title":"Un vestido y un amor (en vivo)","year":0}
{"artist_id":"AR71MIY1187B9BA0C3","artist_location":"","artist_name":"Pantera","duration":244.50567,"num_songs":1,"song_id":"SODTRKW12A6D4F9A51","title":"Planet Caravan (Remastered LP Version)","year":0}
{"artist_id":"ARPXYOG12086C11B80","artist_location":"","artist_name":"Nach","duration":252.44689,"num_songs":1,"song_id":"SOYZWNC12AB0185D67","title":"El tiempo escapa con El Payo Malo y Aniki","year":0}
{"artist_id":"AR22GNA1187B9AA754","artist_latitude":52.88356,"artist_location":"UK - England - North East","artist_longitude":-1.97406,"artist_name":"Ochre","duration":342.9873,"num_songs":1,"song_id":"SOYBTST12AB01894F1","title":"Vegas","year":2006}
{"artist_id":"ARI66OL1187B9AFA5B","artist_latitude":39.29055,"artist_location":"Baltimore, MD","artist_longitude":-76.6096,"artist_name":"Wilderness","duration":252.31628,"num_songs":1,"song_id":"SONHJIK12AB0183E57","title":"Silver Gene","year":2008}
{"artist_id":"ARQQLYQ11E2835E7E9","artist_location":"Toronto ON","artist_name":"Bruce Peninsula","duration":303.75138,"num_songs":1,"song_id":"SOLOYXZ12AB017FA7D","title":"2nd 4th World War","year":2009}
{"artist_id":"ARR20461187B9B4E42","artist_latitude":48.70185,"artist_location":"France","artist_longitude":2.31371,"artist_name":"Glorior Belli","duration":316.60363,"num_songs":1,"song_id":"SOUPUNK12A58A7AE60","title":"Fivefold Thought","year":2009}
{"artist_id":"ARICBBZ1187FB46992","artist_latitude":42.2669,"artist_location":"Rockford, IL","artist_longitude":-89.07835,"artist_name":"The Felix Culpa","duration":267.25832,"num_songs":1,"song_id":"SOZAOKC12AB01820D5","title":"Bad Actors","year":0}
{"artist_id":"AR3SX9G1187FB52D72","artist_latitude":35.21962,"artist_location":"North Carolina","artist_longitude":-80.01955,"artist_name":"No Mercy","duration":240.8224,"num_songs":1,"song_id":"SOWHEAR12A8C13CE45","title":"Please Don't Go","year":0}
{"artist_id":"ARFVOGD1187B98FA8D","artist_latitude":39.73926,"artist_location":"Illinois","artist_longitude":-89.50409,"artist_name":"Papa San","duration":220.86485,"num_songs":1,"song_id":"SOSMHZA12A8C140AE6","title":"Step Pon Di Enemy","year":2003}
{"artist_id":"ARHO39G1187FB4E31B","artist_location":"Jacksonville, FL","artist_name":"38 Special","duration":280.76363,"num_songs":1,"song_id":"SOKUCXB12A6D4FAC0C","title":"Caught Up In You","year":1982}
{"artist_id":"ARBJWNB1187B9A4DEB","artist_location":"","artist_name":"Voodoo & Serano","duration":428.53832,"num_songs":1,"song_id":"SOYJODX12A6D4FAF18","title":"Blood Is Pumpin' 2005 (Remake)","year":0}
{"artist_id":"AR7EOY81187FB437DE","artist_latitude":48.85692,"artist_location":"Paris - France","artist_longitude":2.34121,"artist_name":"Christophe Goze","duration":229.35465,"num_songs":1,"song_id":"SOQRIJI12AB018B0CD","title":"Manana","year":2006}
{"artist_id":"ARAEX7Y1187FB42D36","artist_location":"Severn, MD","artist_name":"Toni Braxton","duration":262.08608,"num_songs":1,"song_id":"SOQCQNU12A8C138694","title":"He Wasn't Man Enough","year":2000}
{"artist_id":"ARIK43K1187B9AE54C","artist_location":"Beverly Hills, CA","artist_name":"Lionel Richie","duration":296.09751,"num_songs":1,"song_id":"SONFKVB12A6D4FBA9A","title":"In My Dreams","year":2004}
{"artist_id":"ARYZAE41187FB46A50","artist_latitude":40.71455,"artist_location":"New York, NY","artist_longitude":-74.00712,"artist_name":"O'Death","duration":234.4224,"num_songs":1,"song_id":"SOYZBHL12A8AE47542","title":"Mountain Shifts","year":2008}
{"artist_id":"AROK2PM1187B9AC021","artist_location":"","artist_name":"The Rippingtons / Russ Freeman","duration":288.20853,"num_songs":1,"song_id":"SOLRTIZ12A6D4F8E0D","title":"Kilimanjaro","year":1988}
{"artist_id":"ARHJ9XG1187FB3C21D","artist_location":"","artist_name":"Coque Malla","duration":181.99465,"num_songs":1,"song_id":"SONWXPO12AC3DF4998","title":"Siempre junto a ti (en directo)","year":2009}
{"artist_id":"ARA7WV51187FB532B0","artist_latitude":44.48721,"artist_location":"Lancaster, NH","artist_longitude":-71.56889,"artist_name":"GG Allin","duration":143.59465,"num_songs":1,"song_id":"SOPDUIV12A8C1367B5","title":"Garbage Dump","year":1999}
{"artist_id":"ARKCYJV1187FB392E9","artist_location":"San Francisco, CA","artist_name":"Set Your Goals","duration":204.40771,"num_songs":1,"song_id":"SOSVWIE12A8C143BD4","title":"the fallen...","year":2009}
{"artist_id":"ARYOGF31187FB44E53","artist_location":"","artist_name":"New Orleans Klezmer Allstars","duration":208.24771,"num_songs":1,"song_id":"SOUMPRK12A8C1336CE","title":"A Viennese Freilach","year":0}
{"artist_id":"AR4XVA51187FB39FEC","artist_latitude":23.62574,"artist_location":"Mexico","artist_longitude":-101.95625,"artist_name":"Susana Zabaleta","duration":290.11546,"num_songs":1,"song_id":"SOWZOPT12A67AD7271","title":"Y Si La Historia","year":0}
{"artist_id":"ARAQDMK12509411CF8","artist_location":"","artist_name":"Vanessa Hudgens/Zac Efron","duration":235.91138,"num_songs":1,"song_id":"SOSEQQE12AB017AF22","title":"Right Here_ Right Now","year":0}
{"artist_id":"ARVN2HB1187B9A4618","artist_location":"Tokyo, Japan","artist_name":"Ken Ishii","duration":438.59546,"num_songs":1,"song_id":"SOUCAMC12A6D4F83DD","title":"Come Out (Ken Ishii remix)","year":0}
{"artist_id":"ARLIIW01187FB5C9E3","artist_latitude":51.45238,"artist_location":"Reading","artist_longitude":-0.99603,"artist_name":"Pete And The Pirates","duration":191.4771,"num_songs":1,"song_id":"SOBFFRY12A8C1377FA","title":"Bright Lights","year":0}
{"artist_id":"ARPFELD1187FB5C9F1","artist_location":"","artist_name":"Pin Me Down","duration":379.21914,"num_songs":1,"song_id":"SOPFXXS12AB017BE49","title":"Cryptic (Phones Materialisation Mix)","year":0}
{"artist_id":"ARALONC1187FB4CDE7","artist_latitude":41.35484,"artist_location":"Groton, CT","artist_longitude":-72.07074,"artist_name":"Arab On Radar","duration":143.12444,"num_songs":1,"song_id":"SOAIQYV12A8AE4786A","title":"Molar System","year":1997}
{"artist_id":"ARL1GBQ1187B9B562D","artist_location":"","artist_name":"Björn Rosenström","duration":214.282,"num_songs":1,"song_id":"SOXPRPT12A8C1409C4","title":"Trosan på Bengt","year":2006}
{"artist_id":"ARCHPXS122988F5B21","artist_location":"","artist_name":"El Alquimista Loco","duration":249.7824,"num_songs":1,"song_id":"SOQPYKK12A67AE08F3","title":"Rumbo A Mambo (Matylda's Song)","year":0}
{"artist_id":"ARMB0B11187B9AE46C","artist_latitude":46.71067,"artist_location":"Brooktown, France","artist_longitude":1.71819,"artist_name":"Cocorosie","duration":274.02404,"num_songs":1,"song_id":"SOUONXA12AB018409A","title":"Grey Oceans","year":2010}
{"artist_id":"ARREK5S1187B991242","artist_latitude":50.44332,"artist_location":"Cornwall, England","artist_longitude":-4.93986,"artist_name":"Wagon Christ","duration":121.52118,"num_songs":1,"song_id":"SOLCTDG12AB01838D6","title":"Boney L","year":2001}
{"artist_id":"ART6G111187B9AA7A1","artist_location":"FAIRFAX, Virginia","artist_name":"Kingston Falls","duration":157.57016,"num_songs":1,"song_id":"SOKFJWS12AB018C456","title":"Alibi: Destroyed","year":0}
{"artist_id":"AR9W3X91187FB3994C","artist_location":"Chiswick, London, England","artist_name":"Phil Collins","duration":216.92036,"num_songs":1,"song_id":"SOFMMKA12A58A7CBF5","title":"Welcome","year":2003}
{"artist_id":"AR4DJG01187FB59EEC","artist_latitude":29.76045,"artist_location":"Houston, TX","artist_longitude":-95.36978,"artist_name":"Ernestine Anderson","duration":433.94567,"num_songs":1,"song_id":"SOORVEQ12A8C13CDD5","title":"Old Folks","year":0}
{"artist_id":"ARZ4G1D1187FB4643B","artist_latitude":52.82599,"artist_location":"UK - England - East Midlands","artist_longitude":-1.32654,"artist_name":"Mala","duration":397.37424,"num_songs":1,"song_id":"SOHCBOL12AB018CD55","title":"Forgive","year":0}
{"artist_id":"ARW63KF1187B98AC48","artist_latitude":46.71067,"artist_location":"FR","artist_longitude":1.71819,"artist_name":"Julien Clerc","duration":107.28444,"num_songs":1,"song_id":"SODRLXB12AB017B14B","title":"Comme Si C'était Doux","year":0}
{"artist_id":"ARQZLCM12086C16EFC","artist_latitude":40.71455,"artist_location":"New York NY","artist_longitude":-74.00712,"artist_name":"Cymbals Eat Guitars","duration":423.52281,"num_songs":1,"song_id":"SOEGGSQ12AAF3B5A9E","title":"Share","year":2009}
{"artist_id":"ARDK9B511C8A422CFD","artist_latitude":40.65507,"artist_location":"BROOKLYN, NEW YORK ","artist_longitude":-73.94888,"artist_name":"Telepathe","duration":158.11873,"num_songs":1,"song_id":"SOJPNAN12A8AE47738","title":"Islands","year":2007}
{"artist_id":"ARKQW4V1187B9AD20B","artist_location":"","artist_name":"Wir Sind Helden","duration":165.72036,"num_songs":1,"song_id":"SORHDVT12A8C1394BE","title":"Gekommen Um Zu Bleiben (Demo)","year":2005}
{"artist_id":"ARXYVR61187B9A8E41","artist_location":"Steenvoorde","artist_name":"Biohazard","duration":154.40934,"num_songs":1,"song_id":"SONWFXV12AB018D56A","title":"True Strengths (LP Version)","year":0}
{"artist_id":"ARW3B111187B9B88C5","artist_latitude":10.17822,"artist_location":"Valencia, Venezuela","artist_longitude":-68.00312,"artist_name":"Asd","duration":226.24608,"num_songs":1,"song_id":"SOXBTRC12A8C13AB1F","title":"Sneak Preview","year":2003}
{"artist_id":"AR26W041187B9964A5","artist_latitude":37.33847,"artist_location":"San Jose, CA","artist_longitude":-121.88579,"artist_name":"Shinobu","duration":92.23791,"num_songs":1,"song_id":"SOXRWKY12A8C13C0A8","title":"T-t-t-trepanning","year":2006}
{"artist_id":"ARAIABB1187B9AC6E2","artist_location":"Paddington, London, England","artist_name":"Seal","duration":279.74485,"num_songs":1,"song_id":"SOBJLED12A8C14108C","title":"Whirlpool [Live]","year":0}
{"artist_id":"ARV72K21187B9ADBA9","artist_location":"","artist_name":"Slusnik Luna / Lowland","duration":378.5922,"num_songs":1,"song_id":"SOHMDOK12AB0183078","title":"Last Train To Trancentral","year":0}
{"artist_id":"ARYBXCB11F50C4E0E0","artist_location":"","artist_name":"Louis Armstrong and His Orchestra","duration":188.86485,"num_songs":1,"song_id":"SOEKYXP12AB018A004","title":"That's My Home","year":0}
{"artist_id":"ARTR6D91187FB57536","artist_location":"St. Louis, MO","artist_name":"Truth Hurts / Dr. Dre","duration":201.74322,"num_songs":1,"song_id":"SOWFDBX12A6701E13E","title":"Hollywood","year":2002}
{"artist_id":"ARRIWD31187B9A9B4A","artist_latitude":40.65507,"artist_location":"BROOKLYN, New York","artist_longitude":-73.94888,"artist_name":"Jean Grae","duration":297.61261,"num_songs":1,"song_id":"SOFTRBO12A8C13C2CC","title":"Whatever","year":2004}
{"artist_id":"AR3YC831187FB51E40","artist_latitude":38.62774,"artist_location":"St. Louis, MO","artist_longitude":-90.19951,"artist_name":"Calico System","duration":206.23628,"num_songs":1,"song_id":"SOCBXPB12AB018B97F","title":"Anorsexia","year":2007}
{"artist_id":"AR6LOPL1187FB4DABE","artist_latitude":38.8991,"artist_location":"Washington","artist_longitude":-77.029,"artist_name":"Mirah","duration":158.09261,"num_songs":1,"song_id":"SOJMVGG12AB018AF5C","title":"Apples in the Trees (Live)","year":0}
{"artist_id":"ARUXG4J1187B9ACB25","artist_location":"","artist_name":"Raymond Van Het Groenewoud","duration":222.09261,"num_songs":1,"song_id":"SOEXUAN12A6D4F734C","title":"Habba Habba Hoek Hoek","year":0}
{"artist_id":"ARYZC0O1187FB36917","artist_location":"","artist_name":"Ghislain Poirier feat. Abdominal","duration":173.60934,"num_songs":1,"song_id":"SOARABN12A8C132B88","title":"City Walking","year":2008}
{"artist_id":"AR1XUYS1187B9A44D7","artist_location":"","artist_name":"Natalie MacMaster","duration":175.49016,"num_songs":1,"song_id":"SOZIIHW12AB0189AFA","title":"Father John Macleod's Jig","year":1999}
{"artist_id":"ARH9GD41187FB37E0F","artist_location":"","artist_name":"Stephen Marley / Damian Marley","duration":273.89342,"num_songs":1,"song_id":"SONQXNP12AB017F81B","title":"The Mission","year":2008}
{"artist_id":"ARE4SXN1187FB38701","artist_latitude":30.2676,"artist_location":"Austin TX","artist_longitude":-97.74298,"artist_name":"Gourds_ The","duration":198.03383,"num_songs":1,"song_id":"SOFGOUN12AB017D50D","title":"Tex - Mex Mile","year":2009}
{"artist_id":"AREENKN1187B98F35D","artist_latitude":40.71455,"artist_location":"New York, NY","artist_longitude":-74.00712,"artist_name":"Plasmatics","duration":230.66077,"num_songs":1,"song_id":"SOGUVEM12A58A7E90C","title":"Sometimes I","year":1979}
{"artist_id":"ARRKUXE1187FB4171E","artist_latitude":49.38426,"artist_location":"CANADA - Ontario","artist_longitude":-84.75627,"artist_name":"Phobia","duration":411.74159,"num_songs":1,"song_id":"SOSSSNR12AB01865D7","title":"Plant Yourself","year":0}
{"artist_id":"ARJZPMG12086C111BC","artist_location":"Santiago, Cuba","artist_name":"Ibrahim Ferrer","duration":313.10322,"num_songs":1,"song_id":"SOMZYTR12A8C13CC7D","title":"mi Tanada Montuna","year":0}
{"artist_id":"AR8IDZK1187FB363F2","artist_latitude":32.33765,"artist_location":"Clinton, MS","artist_longitude":-90.32943,"artist_name":"Jonezetta","duration":198.66077,"num_songs":1,"song_id":"SOHSREZ12A6D4F7C5B","title":"Burn It Down!","year":2006}
{"artist_id":"ARPXYOG12086C11B80","artist_location":"","artist_name":"Nach","duration":191.42485,"num_songs":1,"song_id":"SODESNI12AB0187CD5","title":"El hombre que siempre estuvo allí","year":2005}
{"artist_id":"ARODMV01187B98AEA7","artist_latitude":61.73825,"artist_location":"los angeleses","artist_longitude":15.16463,"artist_name":"Radar Brothers","duration":218.8273,"num_songs":1,"song_id":"SOZWGHH12AB0189D70","title":"Chickens","year":2010}
{"artist_id":"ARSZ7HU1187B9B78BC","artist_location":"Fullerton, CA","artist_name":"The Adolescents","duration":211.06893,"num_songs":1,"song_id":"SOZRLER12A8C13FC07","title":"California Son","year":2003}
{"artist_id":"AR0S5J81187B9AD48B","artist_location":"","artist_name":"7 Notas 7 Colores","duration":179.40853,"num_songs":1,"song_id":"SOBQVCQ12AB018DC8E","title":"Chico_ No Es un Buen Negocio","year":0}
{"artist_id":"ARNORNI1187B98CAFB","artist_location":"","artist_name":"Byron Cage featuring Tye Tribbett","duration":240.43057,"num_songs":1,"song_id":"SOGBFJS12AB0183AB7","title":"In The Midst","year":0}
{"artist_id":"ARE5OK11187FB450F1","artist_latitude":39.73926,"artist_location":"Champagne, IL","artist_longitude":-89.50409,"artist_name":"Viktor Krauss","duration":243.1473,"num_songs":1,"song_id":"SOWNYEK12A6701F046","title":"Side Street","year":0}
{"artist_id":"ARDN4NG1187FB5755E","artist_latitude":35.67048,"artist_location":"Tokyo","artist_longitude":139.74092,"artist_name":"Nobuo Uematsu","duration":166.86975,"num_songs":1,"song_id":"SOUXDJO12A8C144BBC","title":"Ancient Stronghold","year":0}
{"artist_id":"ARCLH8B1187B9AB7A3","artist_latitude":40.30622,"artist_location":"Manalapan, NJ","artist_longitude":-74.37547,"artist_name":"Val Emmich","duration":131.63057,"num_songs":1,"song_id":"SONLCPC12AB0186AE6","title":"American Girl","year":0}
{"artist_id":"AROI11Q1187FB4C6EA","artist_location":"Sweden","artist_name":"Satanic Surfers","duration":164.96281,"num_songs":1,"song_id":"SOSHCFC12AB018BCA7","title":"Blood on the Sidewalk","year":2005}
{"artist_id":"ARN5L1O1187FB4D955","artist_location":"Tempe, AZ","artist_name":"Eyes Set to Kill","duration":238.05342,"num_songs":1,"song_id":"SOFQTGN12A8C13E0E8","title":"Liar in the Glass","year":2006}
{"artist_id":"ARZBYDY1187FB46DD7","artist_latitude":42.54843,"artist_location":"Vernet les Bains","artist_longitude":2.38596,"artist_name":"Cali","duration":339.80036,"num_songs":1,"song_id":"SOCIUEE12A6D4F95D1","title":"Dolorosa (Live)","year":2006}
{"artist_id":"AR5MAKX1187FB4D071","artist_latitude":55.8578,"artist_location":"Glasgow, Scotland","artist_longitude":-4.24251,"artist_name":"Aereogramme","duration":235.62404,"num_songs":1,"song_id":"SOYHWZU12AF72A0898","title":"Inkwell","year":2004}
{"artist_id":"AREMOC71187B996C2F","artist_location":"","artist_name":"Lara Fabian","duration":246.20363,"num_songs":1,"song_id":"SOBVZHC12AB0181786","title":"TLFM (Toutes Les Femmes En Moi)","year":2009}
{"artist_id":"AR4FBUO1187B9B6072","artist_latitude":53.34376,"artist_location":"Dublin, Ireland","artist_longitude":-6.24953,"artist_name":"Celtic Woman","duration":260.30975,"num_songs":1,"song_id":"SOXABVV12A58A7996C","title":"Someday","year":2005}
{"artist_id":"ARHT48W1187B9ACEBA","artist_latitude":51.48126,"artist_location":"Cardiff, Wales","artist_longitude":-3.18067,"artist_name":"Cerys Matthews","duration":252.62975,"num_songs":1,"song_id":"SOZTFXG12A8C145EC7","title":"Evelyn","year":2009}
{"artist_id":"ARDVUFT1187B994637","artist_location":"","artist_name":"Cabin Crew","duration":194.97751,"num_songs":1,"song_id":"SOGFNPM12AB0183EFA","title":"Can't Stop (Mind electric Remix)","year":2009}
{"artist_id":"AREB8361187B9B5FE8","artist_latitude":18.11526,"artist_location":"Rae Town, Jamaica","artist_longitude":-77.27348,"artist_name":"Mutabaruka","duration":240.27383,"num_songs":1,"song_id":"SOXJTHF12A8C1321D0","title":"Outcry","year":1987}
{"artist_id":"AR7WFGC1187B9B1CD4","artist_location":"Lynwood, CA","artist_name":"Weird Al Yankovic","duration":232.64608,"num_songs":1,"song_id":"SONERIC12A8C132623","title":"Buy Me A Condo","year":1984}
{"artist_id":"ARJH0N91187FB41ADE","artist_latitude":40.71455,"artist_location":"NY - New York City","artist_longitude":-74.00712,"artist_name":"Kokolo","duration":520.6722,"num_songs":1,"song_id":"SOMVOOB12A58A782F9","title":"Gimme Yaya","year":2004}
{"artist_id":"ARTW0N61187FB40928","artist_location":"","artist_name":"The Arcane Order","duration":146.78159,"num_songs":1,"song_id":"SOAOIHU12A8C13B040","title":"When Oceans Become Deserts","year":2008}
{"artist_id":"ARC9Y481187B990259","artist_location":"Halmstad, Sweden","artist_name":"Roxette","duration":201.63873,"num_songs":1,"song_id":"SOYKHUW12A6D4F832B","title":"Make My Head Go Pop","year":2001}
{"artist_id":"AR0IVSA1187FB4F069","artist_latitude":40.71455,"artist_location":"New York","artist_longitude":-74.00712,"artist_name":"Helmet","duration":206.94159,"num_songs":1,"song_id":"SOVKTCY12A6310E1CC","title":"Everybody Loves You","year":2004}
{"artist_id":"AR4EAEE1187B98C3E8","artist_latitude":47.37706,"artist_location":"Zurich, Switzerland","artist_longitude":8.53955,"artist_name":"Audio Lotion","duration":249.62567,"num_songs":1,"song_id":"SODDTMM12A8C1358ED","title":"Soap","year":1999}
{"artist_id":"ARZQMTK1187FB4611A","artist_location":"Downey, CA","artist_name":"Donavon Frankenreiter","duration":151.66649,"num_songs":1,"song_id":"SOUMONA12A6310DA5F","title":"Day Dreamer","year":2004}
{"artist_id":"AR9F71I1187FB46CAF","artist_location":"","artist_name":"Gordon MacRae","duration":470.9873,"num_songs":1,"song_id":"SOZIIMQ12A8C13700E","title":"Soliloquy (2001 Digital Remaster)","year":0}
{"artist_id":"ARW7N8C1187B9B0D40","artist_latitude":54.31407,"artist_location":"UK","artist_longitude":-2.23001,"artist_name":"Blaze Bayley","duration":298.94485,"num_songs":1,"song_id":"SOMTAKS12AC468DDC1","title":"Comfortable in Darkness","year":2010}
{"artist_id":"ARHYDJK1187B9B8047","artist_location":"Biloxi, MS","artist_name":"Chris LeDoux","duration":169.63873,"num_songs":1,"song_id":"SODFTYY12A6D4F87A3","title":"The Life Of A Rodeo Cowboy","year":0}
{"artist_id":"AREENKN1187B98F35D","artist_latitude":40.71455,"artist_location":"New York, NY","artist_longitude":-74.00712,"artist_name":"The Plasmatics","duration":286.9024,"num_songs":1,"song_id":"SOKHOUY12A8C1358E0","title":"Summer Nite","year":1981}
{"artist_id":"ARFHZGE1187B9AC17F","artist_location":"","artist_name":"Glenn Tipton","duration":280.81587,"num_songs":1,"song_id":"SOYRXVO12A6D4F7A1A","title":"Hard Core (Remastered LP Version)","year":1997}
{"artist_id":"ARUNARY1187FB49C60","artist_latitude":26.65037,"artist_location":"Puerto Rico US","artist_longitude":-98.35131,"artist_name":"Tito Rojas","duration":313.49506,"num_songs":1,"song_id":"SOJOKOS12A8AE47B75","title":"Te Amo Tanto","year":1999}
{"artist_id":"ARGE94Y1187FB37B9D","artist_location":"Pennsylvania","artist_name":"CKY","duration":232.77669,"num_songs":1,"song_id":"SOZJPHO12A58A77991","title":"The Era Of An End (Album Version)","year":0}
{"artist_id":"ARQ3EJL1187B98BF06","artist_location":"Detroit, MI","artist_name":"Carl Craig / Moritz Oswald","duration":146.23302,"num_songs":1,"song_id":"SOMKTYK12AB017D65A","title":"Movement 1","year":0}
{"artist_id":"ARU8QMU1187FB5B3F9","artist_latitude":56.65286,"artist_location":"Scotland","artist_longitude":-3.99667,"artist_name":"Arab Strap","duration":272.37832,"num_songs":1,"song_id":"SOWSIBY12A6D4F6B0A","title":"Who Named The Days?","year":2002}
{"artist_id":"ARNNPJM1187FB3DB37","artist_latitude":35.62327,"artist_location":"Okmulgee, OK","artist_longitude":-95.97585,"artist_name":"Oscar Pettiford","duration":151.92771,"num_songs":1,"song_id":"SOFHNRX12AC3DF678C","title":"Judy's Jaunt","year":0}
{"artist_id":"ARMECUM12454A4C79A","artist_location":"Bristol, England","artist_name":"Roni Size / Reprazent","duration":417.64526,"num_songs":1,"song_id":"SOVRJRC12A6D4F97D8","title":"Morse Code","year":0}
{"artist_id":"ARTM6SK1187B9B804D","artist_latitude":17.61099,"artist_location":"Dongo Buti, Niger","artist_longitude":8.08094,"artist_name":"Ismaël Lo","duration":268.32934,"num_songs":1,"song_id":"SOMDRDO12A6D4F6ABA","title":"Raciste","year":1992}
{"artist_id":"ARMUMD81187FB52347","artist_latitude":29.29533,"artist_location":"Galveston, TX","artist_longitude":-94.80786,"artist_name":"Larry Coryell","duration":432.06485,"num_songs":1,"song_id":"SOMZFOA12AB018466D","title":"Stiff Neck","year":1968}
{"artist_id":"ARKG27B1187B99944A","artist_latitude":37.77916,"artist_location":"California - SF","artist_longitude":-122.42005,"artist_name":"Jolie Holland","duration":273.97179,"num_songs":1,"song_id":"SOGPLRO12A8C14431E","title":"Palmyra","year":2008}
{"artist_id":"ARV6QTC119B8667F0F","artist_location":"","artist_name":"The Floor Is made Of Lava","duration":270.0273,"num_songs":1,"song_id":"SOZSWAK12AB0182A8A","title":"IKEA Did A Job On You","year":2007}
{"artist_id":"AR78ZID1187B9B31ED","artist_latitude":18.11526,"artist_location":"Jamaica","artist_longitude":-77.27348,"artist_name":"Mikey Dread","duration":309.83791,"num_songs":1,"song_id":"SOEEWVH12A58A78C98","title":"The Jumping Master","year":1981}
{"artist_id":"AR2GAOJ1187FB57B68","artist_location":"","artist_name":"Esbjörn Svensson Trio","duration":365.66159,"num_songs":1,"song_id":"SOYURQJ12A6D4FCFFD","title":"Definition Of A Dog","year":1999}
{"artist_id":"AR6OQMY1187FB485F2","artist_location":"","artist_name":"Charlie Drake","duration":172.43383,"num_songs":1,"song_id":"SOPKLOI12A8C13C695","title":"Working Man (2004 Digital Remaster)","year":0}
{"artist_id":"ARBEOHF1187B9B044D","artist_location":"Bay City, MI","artist_name":"Madonna","duration":320.1824,"num_songs":1,"song_id":"SOVDYER12A6D4F7E1B","title":"Jump [Jacques Lu Cont Edit]","year":2006}
{"artist_id":"ARVZB721187FB55DEB","artist_location":"","artist_name":"Dannii Minogue And The Soul Seekerz","duration":388.28363,"num_songs":1,"song_id":"SOHCMRX12A6D4F8EFB","title":"Perfection","year":2005}
{"artist_id":"AR40YBH1187FB38A1A","artist_location":"Maynardsville, TN","artist_name":"Roy Acuff","duration":138.84036,"num_songs":1,"song_id":"SOBGYAV12A58A7E45D","title":"Back In The Country","year":2001}
{"artist_id":"ARIDBW71187B989E15","artist_latitude":43.7427,"artist_location":"Michigan","artist_longitude":-84.62167,"artist_name":"New Grenada","duration":168.93342,"num_songs":1,"song_id":"SORPOPD12A8C1359B4","title":"Meat Is Murder Mobile","year":0}
{"artist_id":"ARHUC691187B9AD27F","artist_location":"Long Beach, California","artist_name":"The Mars Volta","duration":380.42077,"num_songs":1,"song_id":"SOEIQUY12AF72A086A","title":"Eriatarka","year":2003}
{"artist_id":"ARSUEKA1187FB4B2A9","artist_location":"Los Angeles, CA","artist_name":"Deadsy","duration":192.88771,"num_songs":1,"song_id":"SODHAQL12A6D4F965F","title":"The Key To Gramercy Park","year":2002}
{"artist_id":"ARGADUL1187B9A0399","artist_location":"","artist_name":"Vicky Beeching","duration":214.83057,"num_songs":1,"song_id":"SOEQFQY12A6D4FBEBD","title":"Created To Worship (EP Version)","year":2005}
{"artist_id":"ARLIIVS1187FB5583B","artist_latitude":39.29055,"artist_location":"Baltimore, MD","artist_longitude":-76.6096,"artist_name":"Philip Glass","duration":93.33506,"num_songs":1,"song_id":"SOGVTFI12A8C13F248","title":"Left Alone...","year":2007}
{"artist_id":"AR5LZJD1187FB4C5E5","artist_latitude":35.66693,"artist_location":" NC","artist_longitude":-80.46935,"artist_name":"Britt Nicole","duration":220.36853,"num_songs":1,"song_id":"SOQNPQX12A8C135E46","title":"Set The World On Fire","year":2007}
{"artist_id":"ARHO2OV1187FB4C782","artist_latitude":41.88415,"artist_location":"Chicago, IL","artist_longitude":-87.63241,"artist_name":"Glenn Underground","duration":433.42322,"num_songs":1,"song_id":"SOIFJCG12AAF3B4250","title":"Contraversy","year":0}
{"artist_id":"AR27M2F1187B9B1C50","artist_location":"","artist_name":"Dark Tranquillity","duration":342.49098,"num_songs":1,"song_id":"SOTDBFC12A67ADD66F","title":"Midwinter/beyond Enlightenment","year":0}
{"artist_id":"ARTIYKP1187FB41F5A","artist_latitude":32.71568,"artist_location":"San Diego, CA","artist_longitude":-117.16172,"artist_name":"Abra Moore","duration":256.07791,"num_songs":1,"song_id":"SOQZEIL12A58A7A447","title":"Trip On Love","year":1999}
{"artist_id":"ARUPWVD1187FB4DA36","artist_location":"","artist_name":"Badly Drawn Boy","duration":233.32526,"num_songs":1,"song_id":"SOAIFUP12A8C139F8C","title":"A Journey From A To B (Oui FM)","year":2007}
{"artist_id":"ARFJGR11187FB526F5","artist_location":"","artist_name":"Kristofer Åström","duration":357.35465,"num_songs":1,"song_id":"SOKJKVN12AB0188DE6","title":"Heavy On The Drinks","year":2007}
{"artist_id":"ARC07PP1187B9B49E9","artist_location":"","artist_name":"Blue Man Group","duration":262.47791,"num_songs":1,"song_id":"SOURXQI12A8C13E7C9","title":"Time To Start (Live Album Version)","year":0}
{"artist_id":"AR9OLFX1187B9A5762","artist_latitude":31.30757,"artist_location":"Kosse, TX","artist_longitude":-96.63166,"artist_name":"Bob Wills","duration":160.26077,"num_songs":1,"song_id":"SOYHZYO12A8C1391D8","title":"Yearning Just For You","year":0}
{"artist_id":"AR3SPD91187B9B63E3","artist_location":"","artist_name":"Héroes del Silencio","duration":198.89587,"num_songs":1,"song_id":"SORNYFV12AF729F4A0","title":"El Mar No Cesa (Live)","year":1991}
{"artist_id":"AR1TJ841187B9912D3","artist_location":"","artist_name":"Kim Waters","duration":272.56118,"num_songs":1,"song_id":"SOIIRSC12A8C1331DC","title":"Two Hearts Of Mine (Song For My Twins)","year":0}
{"artist_id":"ARZ8KO81187B9B1B7C","artist_location":"","artist_name":"Burt Bacharach","duration":175.882,"num_songs":1,"song_id":"SOTMGME12AB017F79B","title":"Are You There (With Another Girl)","year":1967}
{"artist_id":"AR0FZPP1187FB3CAF9","artist_location":"","artist_name":"Stefan Sundström","duration":157.04771,"num_songs":1,"song_id":"SOABUAX12A8C141F08","title":"Dyrt att vara fattiglapp","year":2006}
{"artist_id":"AR9M9XY1187B98B2F8","artist_latitude":30.08374,"artist_location":"Cairo/Egypt","artist_longitude":31.25536,"artist_name":"Abbott & Chambers","duration":385.25342,"num_songs":1,"song_id":"SOOUEFP12A81C2272E","title":"Never After","year":0}
{"artist_id":"ARBHCP31187FB4D417","artist_location":"New York, New York","artist_name":"Antony & The Johnsons","duration":193.74975,"num_songs":1,"song_id":"SOTXOVS12A6D4F9E8B","title":"Divine","year":2000}
{"artist_id":"ARM454O1187B9B72B0","artist_location":"Knoxville TN","artist_name":"Superdrag","duration":218.61832,"num_songs":1,"song_id":"SOGXVSA12A8C1434F8","title":"Garmonbozia (LP Version)","year":1996}
{"artist_id":"ARUN69Q1187B98E4D4","artist_latitude":41.88415,"artist_location":"Chicago, IL","artist_longitude":-87.63241,"artist_name":"Patricia Barber","duration":360.30649,"num_songs":1,"song_id":"SOLFJYV12A6D4F9731","title":"Persephone","year":2006}
{"artist_id":"AR3ZGUC1187FB57721","artist_location":"","artist_name":"Ali Farka Toure_ Toumani Diabate","duration":210.28526,"num_songs":1,"song_id":"SOXHPYD12A8C13C2EF","title":"Soumbou Ya Ya","year":2005}
{"artist_id":"ARAWK7J1187FB3D8C5","artist_latitude":39.74001,"artist_location":"Denver, CO","artist_longitude":-104.99226,"artist_name":"Ghost Buffalo","duration":251.03628,"num_songs":1,"song_id":"SOAGEHQ12A8C134D0B","title":"Blinding Sky","year":2006}
{"artist_id":"ARZF30Z1187FB53ED3","artist_location":"","artist_name":"Jonatha Brooke","duration":162.5073,"num_songs":1,"song_id":"SOGWOQL12A6D4FBF55","title":"Better After All (Album Version)","year":2004}
{"artist_id":"ARYRTTG1187B98D91F","artist_latitude":39.10644,"artist_location":"Cincinnati, Ohio","artist_longitude":-84.50469,"artist_name":"Fat Jon","duration":199.49669,"num_songs":1,"song_id":"SOLMAVU12AB0186176","title":"Feel The Void","year":2001}
{"artist_id":"ARCAEMJ1187B9AF210","artist_location":"Teheran, Iran","artist_name":"Sharam feat. Kid Cudi","duration":495.28118,"num_songs":1,"song_id":"SOZRRIM12A8C13F9A0","title":"She Came Along","year":0}
{"artist_id":"ARXPE571187FB4AFD0","artist_location":"Chicago, IL","artist_name":"Rickie Lee Jones","duration":291.97016,"num_songs":1,"song_id":"SOLDRGH12A8C131F5D","title":"Second Time Around","year":1991}
{"artist_id":"AROS1ML1187FB4CF35","artist_latitude":30.37251,"artist_location":"Mandeville, Louisiana","artist_longitude":-90.0791,"artist_name":"12 Stones","duration":184.45016,"num_songs":1,"song_id":"SOYOSWO12AB0189D97","title":"My Life","year":2002}
{"artist_id":"ARTPY6B1187B98C720","artist_location":"","artist_name":"Cactus","duration":266.39628,"num_songs":1,"song_id":"SOSULYS12A8151CC9D","title":"My Lady From South Of Detroit (LP Version)","year":0}
{"artist_id":"ARN0GFV1187FB508CC","artist_location":"","artist_name":"Wiz Khalifa","duration":229.8771,"num_songs":1,"song_id":"SONEBJS12A8C13C98A","title":"Youngin On His Grind [Main Version]","year":2007}
{"artist_id":"AR7VWZ11187B98DA42","artist_location":"","artist_name":"Spice Girls","duration":254.53669,"num_songs":1,"song_id":"SOXAVAD12AF72A44F9","title":"Let Love Lead The Way (Radio Edit)","year":2000}
{"artist_id":"ARX463Y1187B9B09C9","artist_latitude":37.97691,"artist_location":"Evansville, IN","artist_longitude":-87.56412,"artist_name":"Mock Orange","duration":229.56363,"num_songs":1,"song_id":"SOMWPKO12A3F1EC85E","title":"This Nation","year":2004}
{"artist_id":"ARC9YSC1187B99C141","artist_latitude":39.10644,"artist_location":"cincinnati Ohio USA","artist_longitude":-84.50469,"artist_name":"Starfield","duration":295.6273,"num_songs":1,"song_id":"SOGEMGK12AB0182888","title":"Captivate","year":2006}
{"artist_id":"ARGQANQ11F50C4769E","artist_latitude":37.87869,"artist_location":"San Francisco Bay Area","artist_longitude":-121.94345,"artist_name":"Y&T","duration":201.74322,"num_songs":1,"song_id":"SOIRCWN12A6D4FC58D","title":"Contagious","year":1987}
{"artist_id":"ARNW074119B8668824","artist_location":"","artist_name":"Miss Alex White & The Red Orchestra","duration":121.57342,"num_songs":1,"song_id":"SOJHKBD12A6D4FAF68","title":"I Dig History","year":0}
{"artist_id":"AR7RTGF1187FB38793","artist_location":"Alton, IL","artist_name":"Miles Davis","duration":194.58567,"num_songs":1,"song_id":"SOEYWTI12A6310E16D","title":"Jeru (2000 Digital Remaster)","year":0}
{"artist_id":"ARUPCKH124549A3AF0","artist_latitude":37.16793,"artist_location":"USA","artist_longitude":-95.84502,"artist_name":"Alvin And The Chipmunks","duration":210.05016,"num_songs":1,"song_id":"SOLXIKN12A8C13DF6F","title":"Oh Gondaliero","year":0}
{"artist_id":"AR7EJ7P1187B98F28A","artist_location":"Detroit, MI","artist_name":"Martha Reeves","duration":157.41342,"num_songs":1,"song_id":"SOMHJCS12A8C14000F","title":"Dancing In The Street","year":1986}
{"artist_id":"AR6RSHA1187FB3F03F","artist_latitude":51.00883,"artist_location":"Lule�Sweden","artist_longitude":-2.99275,"artist_name":"Raised Fist","duration":298.70975,"num_songs":1,"song_id":"SOAWSUR12A8C139785","title":"Disable Me","year":2002}
{"artist_id":"ARQJHVX1187B9B73FE","artist_location":"","artist_name":"Les Négresses Vertes","duration":268.85179,"num_songs":1,"song_id":"SOQBHAU12A6D4F669C","title":"Le Poète (Live)","year":2002}
{"artist_id":"ARNANUQ11F50C4F192","artist_latitude":38.8991,"artist_location":"Washington","artist_longitude":-77.029,"artist_name":"Kasey Anderson","duration":364.45995,"num_songs":1,"song_id":"SOFKZBQ12AB017C1E6","title":"Don't Look Back","year":2007}
{"artist_id":"ARICLHS1252CCF8FFA","artist_location":"","artist_name":"J. Stalin","duration":258.40281,"num_songs":1,"song_id":"SOHWHAW12A8C1424BC","title":"Colder Blood (feat. The Jacka & Berner)","year":0}
{"artist_id":"AR6BTUN1187FB3C5A1","artist_latitude":39.95227,"artist_location":"Philadelphia, PA","artist_longitude":-75.16237,"artist_name":"Bahamadia","duration":205.68771,"num_songs":1,"song_id":"SOBTOVD12A6D4F7FC9","title":"Total Wreck","year":1996}
{"artist_id":"AR8368J1187FB4CFF3","artist_latitude":35.14968,"artist_location":"Memphis, TN","artist_longitude":-90.04892,"artist_name":"Chris Bell","duration":224.02567,"num_songs":1,"song_id":"SORNVFC12A6D4F892B","title":"I Am the Cosmos","year":1978}
{"artist_id":"ARIPXFO1187B9ACFF9","artist_latitude":51.50632,"artist_location":"London, England","artist_longitude":-0.12714,"artist_name":"Erasure","duration":210.18077,"num_songs":1,"song_id":"SORRAXB12A8AE48723","title":"Be My Baby","year":2007}
{"artist_id":"ARJF9UH1187FB45203","artist_location":"","artist_name":"The Reign Of Kindo","duration":348.65587,"num_songs":1,"song_id":"SOFFZUI12A58A7B53D","title":"I Hear That Music Play","year":2008}
{"artist_id":"AR1U3BY1187B9B136F","artist_location":"","artist_name":"God Lives Underwater","duration":215.40526,"num_songs":1,"song_id":"SOPWHEV12AB017DC10","title":"Don't Know How To Be","year":1995}
{"artist_id":"AR8LDC91187B9AC3D8","artist_location":"","artist_name":"Members Of Mayday","duration":241.6322,"num_songs":1,"song_id":"SOXMRMY12A8C141390","title":"Forward Ever Backward Never","year":0}
{"artist_id":"ARJLYDW1187FB4236A","artist_latitude":29.7284,"artist_location":"Baytown, TX","artist_longitude":-94.99695,"artist_name":"Leeland","duration":236.56444,"num_songs":1,"song_id":"SOFLYYH12AB01811CA","title":"Lift Your Eyes Up","year":0}
{"artist_id":"ARWIN9D1187B98E544","artist_location":"","artist_name":"Jason & The Scorchers","duration":172.25098,"num_songs":1,"song_id":"SOMXUFQ12AF72A0646","title":"Help There's A Fire","year":1983}
{"artist_id":"ARBB1N11187B9B1AE3","artist_latitude":43.0026,"artist_location":"Flint, MI","artist_longitude":-83.7826,"artist_name":"The Dayton Family","duration":31.21587,"num_songs":1,"song_id":"SODRAAH12A8C13AEEC","title":"The Journal","year":0}
{"artist_id":"ARLMPZU1187B9B640B","artist_location":"","artist_name":"Lost Children Of Babylon","duration":288.10404,"num_songs":1,"song_id":"SOBWJGR12A8C13BD38","title":"Shattered Dreamz","year":2006}
{"artist_id":"AR08PJH1187FB3F359","artist_latitude":38.62774,"artist_location":"St. Louis, MO","artist_longitude":-90.19951,"artist_name":"Oliver Nelson","duration":376.08444,"num_songs":1,"song_id":"SOXZZMZ12AB017E8CB","title":"Patterns","year":0}
{"artist_id":"ARC3KY01187B9AEB09","artist_latitude":31.1689,"artist_location":"United States","artist_longitude":-100.07715,"artist_name":"2002","duration":336.48281,"num_songs":1,"song_id":"SOSIEAV12AB0180661","title":"Heaven And Earth","year":2000}
{"artist_id":"ARQGG4D1187B9B859C","artist_location":"St. Louis, MO","artist_name":"Chingy","duration":105.69098,"num_songs":1,"song_id":"SOOHFXE12A6D4FAE61","title":"F*ck Dat Nigga (Skit)","year":2003}
{"artist_id":"ARMG34A1187FB548A8","artist_latitude":30.08374,"artist_location":"Cairo, Egypt","artist_longitude":31.25536,"artist_name":"Thomas Dolby","duration":259.5522,"num_songs":1,"song_id":"SOKWFMU12A6310E276","title":"Windpower","year":1982}
{"artist_id":"AR6DASZ1187B9AC5C3","artist_latitude":51.7562,"artist_location":"Oxford","artist_longitude":-1.25949,"artist_name":"Jonny Greenwood","duration":129.43628,"num_songs":1,"song_id":"SOTCUVT12AF72A812E","title":"Iron Swallow","year":2003}
{"artist_id":"ARDEBMB1187B9B7CBA","artist_latitude":51.50632,"artist_location":"London, England","artist_longitude":-0.12714,"artist_name":"Ultravox!","duration":214.36036,"num_songs":1,"song_id":"SOMLWKF12A6D4F9D7C","title":"Rockwrok","year":1977}
{"artist_id":"ARD43IF1187FB3B5E3","artist_location":"","artist_name":"The Incredible String Band","duration":237.24363,"num_songs":1,"song_id":"SOPPUXQ12A6D4F8A9A","title":"Time (LP Version)","year":0}
{"artist_id":"ARDHJIX11E2835E0FA","artist_latitude":39.73926,"artist_location":"Illinois","artist_longitude":-89.50409,"artist_name":"Anni Rossi","duration":138.9971,"num_songs":1,"song_id":"SOKVVST12A58A7E05D","title":"Air Is Nothing","year":2009}
{"artist_id":"ARTNON61187B98D6EE","artist_location":"Manchester, England","artist_name":"Elbow","duration":291.00363,"num_songs":1,"song_id":"SOEJQOM12A8C13D882","title":"The Bones Of You","year":2008}
{"artist_id":"ARS8QU51187FB4310A","artist_location":"","artist_name":"Johnny Kidd & The Pirates","duration":140.9824,"num_songs":1,"song_id":"SOSMVOE12A6D4FD744","title":"Shakin' All Over","year":1960}
{"artist_id":"ARM10RS1187FB59AEF","artist_location":"","artist_name":"Gladiators","duration":139.78077,"num_songs":1,"song_id":"SOMHHJR12A6D4F7CC9","title":"Bellyfull (2000 Digital Remaster)","year":0}
{"artist_id":"AREGC1Z1187B995A90","artist_location":"Los Angeles, CA","artist_name":"Jurassic 5","duration":391.1571,"num_songs":1,"song_id":"SOTIHTH12A6701E117","title":"Acetate Prophets","year":2002}
{"artist_id":"ARCID1N1187FB51DA0","artist_location":"","artist_name":"Carlos Nuñez","duration":275.43465,"num_songs":1,"song_id":"SOVENLZ12A8C13F7DE","title":"Camiño De Santiago","year":2004}
{"artist_id":"ARWILYB1187FB37DFE","artist_latitude":34.16612,"artist_location":"New Mexico","artist_longitude":-106.02612,"artist_name":"Bananarama","duration":261.22404,"num_songs":1,"song_id":"SOSSUDX12A6701F3B3","title":"Some Girls","year":2007}
{"artist_id":"AR54JHT1187B98BC51","artist_latitude":42.32356,"artist_location":"Medford, OR","artist_longitude":-122.87561,"artist_name":"Virus Nine","duration":112.90077,"num_songs":1,"song_id":"SOACNTO12AB0188A09","title":"77 Threat","year":2002}
{"artist_id":"ARGXOW01187FB50208","artist_location":"","artist_name":"Goodwill & Tommy Trash","duration":554.63138,"num_songs":1,"song_id":"SOTAJWV12A8C135B63","title":"It's A Swede Thing","year":2007}
{"artist_id":"ARI10GS1187B99B2BD","artist_latitude":42.88544,"artist_location":"Buffalo, NY","artist_longitude":-78.87846,"artist_name":"Brian McKnight","duration":170.4224,"num_songs":1,"song_id":"SOAFREI12A670214C2","title":"Prelude","year":2001}
{"artist_id":"AR5V03O1187FB57D01","artist_latitude":37.27188,"artist_location":"California","artist_longitude":-119.27023,"artist_name":"Sprung Monkey","duration":216.00608,"num_songs":1,"song_id":"SOTLNEX12A8C145CAE","title":"Segunda","year":1999}
{"artist_id":"ARI4O061187B991624","artist_latitude":42.31256,"artist_location":"san francisco","artist_longitude":-71.08868,"artist_name":"Matt Nathanson","duration":268.56444,"num_songs":1,"song_id":"SOTWOMA12A6D4FB876","title":"Maid","year":1997}
{"artist_id":"ARB00VV1187B9AF612","artist_latitude":48.13641,"artist_location":"Munchen","artist_longitude":11.57752,"artist_name":"Sieges Even","duration":313.39057,"num_songs":1,"song_id":"SOCESDD12AB01819D7","title":"Blue Wide Open","year":2005}
{"artist_id":"ARN9D2E1187B9A9DB9","artist_latitude":35.83073,"artist_location":"Tennesee","artist_longitude":-85.97874,"artist_name":"Turbo Fruits","duration":96.23465,"num_songs":1,"song_id":"SOVALYI12A8C13E565","title":"Ramblin Rose","year":2007}
{"artist_id":"ARYRINH1187FB50A6C","artist_latitude":37.16793,"artist_location":"USA","artist_longitude":-95.84502,"artist_name":"Kingspade","duration":194.42893,"num_songs":1,"song_id":"SOUWCRZ12AB0189E30","title":"Neighborhood Trends","year":2007}
{"artist_id":"ARKIOF41187B9B1944","artist_location":"London, England","artist_name":"Lethal Bizzle","duration":204.85179,"num_songs":1,"song_id":"SOVIRND12AC468E1B0","title":"Can u See Me","year":2009}
{"artist_id":"ARW24PI1187B9A6126","artist_location":"Payson, UT","artist_name":"Jewel","duration":195.81342,"num_songs":1,"song_id":"SOZDADI12A8C144437","title":"Everything Reminds Me Of You","year":0}
{"artist_id":"AR5C4AV1187B9B14DD","artist_latitude":40.36583,"artist_location":"New Hope, PA  USA","artist_longitude":-74.95196,"artist_name":"Ween","duration":229.77261,"num_songs":1,"song_id":"SOLNYXG12AB018AAF3","title":"Sorry Charlie","year":1991}
{"artist_id":"ARRPMC11187B9ABCDE","artist_latitude":62.19845,"artist_location":"Sweden","artist_longitude":17.55142,"artist_name":"Timo Räisänen","duration":279.35302,"num_songs":1,"song_id":"SOPQABD12AB01867C3","title":"Moonchild","year":0}
{"artist_id":"ARCKTIE1187FB439E5","artist_location":"","artist_name":"Robert Walter's 20th Congress","duration":243.19955,"num_songs":1,"song_id":"SORFMHE12A58A7800D","title":"Convex+Concave","year":2003}
{"artist_id":"ARMG6K31187FB55677","artist_location":"","artist_name":"Deekline & Wizard","duration":325.92934,"num_songs":1,"song_id":"SOJDGAU12AB0181EB5","title":"Baila Baila \u0013 Vent Remix","year":0}
{"artist_id":"ARW5YE51187FB3CCC5","artist_location":"Baltimore, Maryland","artist_name":"MISERY INDEX","duration":147.43465,"num_songs":1,"song_id":"SOXXNNR12A8C14109A","title":"Meet Reality","year":2006}
{"artist_id":"ARHTRR71187B98F305","artist_location":"","artist_name":"Michelle Tumes","duration":228.72771,"num_songs":1,"song_id":"SOGUDEQ12A6D4FAB25","title":"Everywhere (Dream Album Version)","year":0}
{"artist_id":"ARIT4JG1187FB46250","artist_location":"","artist_name":"Chicane","duration":353.04444,"num_songs":1,"song_id":"SOPCEHF12AB0188A66","title":"Hiding All The Stars (Justin Fry Remix)","year":0}
{"artist_id":"AR1ZYLH1187B98C159","artist_location":"East Orange, NJ","artist_name":"Naughty By Nature","duration":330.08281,"num_songs":1,"song_id":"SONLWDJ12AF72A2C9C","title":"Family Tree","year":2002}
{"artist_id":"ARQG4O41187B98A03B","artist_latitude":39.96196,"artist_location":"Eugene, OR","artist_longitude":-83.00298,"artist_name":"RJD2","duration":243.30404,"num_songs":1,"song_id":"SOWTETI12AB0184CFD","title":"Big Game (Instrumental)","year":0}
{"artist_id":"ARH6SQC1187B9A2ECA","artist_location":"","artist_name":"Piron's New Orleans Orchestra","duration":216.39791,"num_songs":1,"song_id":"SOSQZFW12AB018A2BC","title":"West Indies Blues","year":0}
{"artist_id":"ARYY9W41187B9B3FDD","artist_latitude":52.51607,"artist_location":"berlin","artist_longitude":13.37698,"artist_name":"Electrixx","duration":405.28934,"num_songs":1,"song_id":"SODFVTN12A81C2118A","title":"Störrgeräusch","year":0}
{"artist_id":"ARB6OGR1187FB4D43D","artist_latitude":43.58015,"artist_location":"Antibes, France","artist_longitude":7.12123,"artist_name":"M83","duration":116.45342,"num_songs":1,"song_id":"SOYQXAU12A8C135A75","title":"Let Men Burn Stars","year":2005}
{"artist_id":"ARQBEQM1187B9B4FB9","artist_latitude":51.50632,"artist_location":"London, England","artist_longitude":-0.12714,"artist_name":"Anoushka Shankar","duration":529.68444,"num_songs":1,"song_id":"SOVGKUM12A8C13A00C","title":"Kirwani","year":0}
{"artist_id":"ARSFR7J1187FB4165E","artist_latitude":34.16612,"artist_location":"New Mexico","artist_longitude":-106.02612,"artist_name":"Sky","duration":209.57995,"num_songs":1,"song_id":"SOHHTKU12A6D4F60E8","title":"Some Kinda Wonderful","year":1999}
{"artist_id":"AR87K371187FB5AA8E","artist_location":"London, England","artist_name":"Uriah Heep","duration":252.9171,"num_songs":1,"song_id":"SONXFRI12AB018726F","title":"What Should Be Done","year":1971}
{"artist_id":"AR46CAD1187FB4D84B","artist_latitude":34.05349,"artist_location":"Los Angeles, Ca","artist_longitude":-118.24532,"artist_name":"Bad Religion","duration":239.882,"num_songs":1,"song_id":"SOTUHWT12A58A7ABA9","title":"Epiphany","year":2002}
{"artist_id":"AR60ODO1187FB4D9AB","artist_latitude":40.5725,"artist_location":"Staten Island, NY","artist_longitude":-74.154,"artist_name":"Joan Baez","duration":302.07955,"num_songs":1,"song_id":"SOINXUE12AB0181D09","title":"Annabel Lee","year":1967}
{"artist_id":"ARF3GX71187FB3EB66","artist_location":"Medicine Lodge, KS","artist_name":"Martina McBride","duration":349.33506,"num_songs":1,"song_id":"SOZSKYN12A8C13A883","title":"God's Will","year":2003}
{"artist_id":"AR7HWY21187B991379","artist_latitude":40.8272,"artist_location":"Syosset, NY","artist_longitude":-73.49664,"artist_name":"Mark Whitfield","duration":291.13424,"num_songs":1,"song_id":"SOVMVII12A8C14588C","title":"Come Together","year":0}
{"artist_id":"ARVKQ0C1187FB3FF78","artist_latitude":44.94382,"artist_location":"Saint Paul, MN","artist_longitude":-93.09332,"artist_name":"Hockey Night","duration":236.17261,"num_songs":1,"song_id":"SOUQAYL12A6D4F5924","title":"Get Real","year":2005}
{"artist_id":"ARZXNFV1187B9BA2CD","artist_location":"Lettsworth, LA","artist_name":"Buddy Guy","duration":171.72853,"num_songs":1,"song_id":"SOAQUPA12A6D4F81ED","title":"Let Me Love You Baby","year":1970}
{"artist_id":"ARMR44C1187FB433D2","artist_location":"","artist_name":"Penguin Café Orchestra","duration":72.77669,"num_songs":1,"song_id":"SOFGXTD12A6D4F8861","title":"Harmonic Necklace","year":1981}
{"artist_id":"AR4WVZH1187FB47434","artist_location":"London, England","artist_name":"The Herbaliser","duration":359.1571,"num_songs":1,"song_id":"SOOGOMV12AB01871F5","title":"Repetitive Loop","year":1995}
{"artist_id":"AR8BBST1187B9979E1","artist_location":"","artist_name":"Blind Guardian","duration":299.62404,"num_songs":1,"song_id":"SOLXWQM12A8C13AD9C","title":"Damned For All Time (Remastered)","year":0}
{"artist_id":"ARA0JEL1187B998FA3","artist_latitude":49.26044,"artist_location":"Vancouver, BC, Canada","artist_longitude":-123.11403,"artist_name":"Dub Wiser","duration":468.06159,"num_songs":1,"song_id":"SOKSCMS12A8C1318CC","title":"Atom x","year":0}
{"artist_id":"AR0CWOB1187B99FA08","artist_location":"United States","artist_name":"Christophe Beck","duration":150.09914,"num_songs":1,"song_id":"SOFLXUY12A8C1364F6","title":"Why Jack Called","year":2006}
{"artist_id":"ARH9EFC1187B9A400E","artist_location":"","artist_name":"Raly Barrionuevo","duration":176.37832,"num_songs":1,"song_id":"SOGDJSL12AB0187B56","title":"La Pulpera de Santa Lucía","year":0}
{"artist_id":"ARKTTQZ1187B98B771","artist_location":"Montreal, Quebec, Canada","artist_name":"The Dears","duration":482.97751,"num_songs":1,"song_id":"SOVZXBE12A8C143C9D","title":"Lights Off","year":2008}
{"artist_id":"ARSMRIN1187B9AB35A","artist_location":"Middlesbrough, England","artist_name":"Paul Rogers","duration":265.01179,"num_songs":1,"song_id":"SOJLHAD12A67ADF6A9","title":"The Hunter","year":1993}
{"artist_id":"ARUTVKN1187B9A3120","artist_latitude":40.14323,"artist_location":"New Jersey","artist_longitude":-74.72671,"artist_name":"Chris Garneau","duration":238.68036,"num_songs":1,"song_id":"SOUTMTF12A6D4FC9A5","title":"Castle-Time","year":2007}
{"artist_id":"AR2EC591187FB4B3E4","artist_latitude":52.88356,"artist_location":"England","artist_longitude":-1.97406,"artist_name":"Brinsley Schwarz","duration":187.79383,"num_songs":1,"song_id":"SOAIXCB12A6D4F91AB","title":"Country Girl","year":1974}
{"artist_id":"ARDL6T21187FB36FDD","artist_latitude":30.53301,"artist_location":"Opelousas, LA","artist_longitude":-92.08238,"artist_name":"Clifton Chenier","duration":204.32934,"num_songs":1,"song_id":"SOUBZKN12A6D4FB691","title":"It's Hard","year":0}
{"artist_id":"ARNYE541187B98FAF4","artist_location":"","artist_name":"Paul Burch & The WPA Ballclub","duration":211.09506,"num_songs":1,"song_id":"SOFBRWE12A8C13246A","title":"Born To Wait","year":1998}
{"artist_id":"ARRYAR91187FB40ABD","artist_location":"Minnesota","artist_name":"Screaming Mechanical Brain","duration":179.51302,"num_songs":1,"song_id":"SORPEXN12A8C141755","title":"Gloryhole","year":0}
{"artist_id":"ARJCR261187B9A37AF","artist_latitude":49.38426,"artist_location":"CANADA - Ontario","artist_longitude":-84.75627,"artist_name":"Jim Cuddy","duration":239.25506,"num_songs":1,"song_id":"SOOVIQG12A6D4FAC8F","title":"Trouble","year":1999}
{"artist_id":"AR6HLNH1187B990435","artist_location":"Dayton, OH","artist_name":"John Scofield","duration":403.12118,"num_songs":1,"song_id":"SOVTCMR12A8C142249","title":"The Angel Of Death","year":2009}
{"artist_id":"AR5MUOW1187B9B5CB2","artist_location":"","artist_name":"Ismo Alanko","duration":283.95057,"num_songs":1,"song_id":"SOSACZH12A81C1FE0D","title":"Extaasiin (2001 Digital Remaster)","year":0}
{"artist_id":"AR0BV7E1187FB386C1","artist_location":"Hollywood, CA","artist_name":"Lee Ritenour","duration":321.56689,"num_songs":1,"song_id":"SOMCQZY12A8C136BBF","title":"Can You Feel It?","year":1998}
{"artist_id":"ARODMV01187B98AEA7","artist_latitude":61.73825,"artist_location":"los angeleses","artist_longitude":15.16463,"artist_name":"Radar Brothers","duration":215.58812,"num_songs":1,"song_id":"SOYIDBH12AB0189D60","title":"Quarry","year":2010}
{"artist_id":"ARFMT4W1187FB42FA8","artist_location":"Decatur, IL","artist_name":"Alison Krauss","duration":223.45098,"num_songs":1,"song_id":"SOZBKAN12AB0182179","title":"That Kind Of Love","year":1999}
{"artist_id":"ARKZESI119B86682ED","artist_location":"","artist_name":"Ryuichi Sakamoto","duration":340.84526,"num_songs":1,"song_id":"SOABQFG12A58A7C6A7","title":"Seven Samurai - ending theme","year":0}
{"artist_id":"ARL752Q1187FB35EFE","artist_latitude":23.62574,"artist_location":"Mexico","artist_longitude":-101.95625,"artist_name":"Alquimia","duration":261.98159,"num_songs":1,"song_id":"SOXREIR12AB0181E9D","title":"The Lass of Glenshee","year":0}
{"artist_id":"ARTF30Q1187FB3F182","artist_location":"CANADA - Ontario","artist_name":"Harem Scarem","duration":285.88363,"num_songs":1,"song_id":"SOEITLJ12A67021321","title":"Something To Say","year":0}
{"artist_id":"AR1F6T91187FB4D5FE","artist_latitude":53.74319,"artist_location":"Hull, England","artist_longitude":-0.34592,"artist_name":"Baby Mammoth","duration":497.37098,"num_songs":1,"song_id":"SOFPDOX12A8C146B3F","title":"Elephunk","year":2000}
{"artist_id":"ARVZWQ31187B9B8946","artist_latitude":34.05349,"artist_location":"LA / NYC","artist_longitude":-118.24532,"artist_name":"Liars","duration":259.05587,"num_songs":1,"song_id":"SONEAJZ12B0CEB476A","title":"A Visit From Drum","year":2006}
{"artist_id":"AR522V51187FB5BFDB","artist_latitude":38.49809,"artist_location":"Kansas","artist_longitude":-98.32023,"artist_name":"Kerry Livgren","duration":245.86404,"num_songs":1,"song_id":"SOFNUXR12AB017B768","title":"Wandering Spirit","year":0}
{"artist_id":"ARMBASL1187B99107C","artist_latitude":34.05349,"artist_location":"Los Angeles, CA","artist_longitude":-118.24532,"artist_name":"Union 13","duration":152.05832,"num_songs":1,"song_id":"SOAIBPS12A8C139792","title":"The Game","year":2000}
{"artist_id":"ARK3KQ41187B9A64F0","artist_latitude":-6.36821,"artist_location":"Tanzania","artist_longitude":34.88519,"artist_name":"Ndala Kasheba","duration":414.1971,"num_songs":1,"song_id":"SOSLCNE12AB018566F","title":"Marashi Ya Pemba","year":0}
{"artist_id":"ARNZ70R1187B9A4824","artist_location":"Westbury, Long Island, NY","artist_name":"Joe Satriani","duration":469.60281,"num_songs":1,"song_id":"SOMCIIM12A8AE49622","title":"Echo","year":1987}
{"artist_id":"AR5QUQY1187FB58AE8","artist_location":"","artist_name":"Gibby Haynes and His Problem","duration":302.44526,"num_songs":1,"song_id":"SOMXQEF12A8C13E03F","title":"Dream Machine","year":2004}
{"artist_id":"AR6OSQ81187FB3FDAB","artist_latitude":53.34376,"artist_location":"Dublin, Ireland","artist_longitude":-6.24953,"artist_name":"Ronan Keating","duration":231.00036,"num_songs":1,"song_id":"SOUAQWX12A6D4F7DEF","title":"Words","year":2004}
{"artist_id":"AR87K371187FB5AA8E","artist_location":"London, England","artist_name":"Uriah Heep","duration":212.84526,"num_songs":1,"song_id":"SOIGNJY12A8C13AE1A","title":"Wake The Sleeper","year":2008}
{"artist_id":"ARNEA8G1187B98CCD6","artist_latitude":40.71455,"artist_location":"New York, NY","artist_longitude":-74.00712,"artist_name":"Chavez","duration":146.18077,"num_songs":1,"song_id":"SOMQXGF12A6D4FADF5","title":"Pentagram Ring","year":1995}
{"artist_id":"AREHK7O1187B9ADDD7","artist_location":"J�ping, Sweden","artist_name":"The Cardigans","duration":296.85506,"num_songs":1,"song_id":"SOJCBAM12A6701FD04","title":"Paralyzed","year":1998}
{"artist_id":"ARIAJDN1187FB4D070","artist_latitude":39.95227,"artist_location":"Philadelphia, PA","artist_longitude":-75.16237,"artist_name":"Pat Martino","duration":683.07546,"num_songs":1,"song_id":"SOBYUUQ12AC3DF83EA","title":"Turnpike","year":0}
{"artist_id":"ARSC0U31187B9A835E","artist_latitude":40.1142,"artist_location":"Champaign, IL","artist_longitude":-88.2435,"artist_name":"Jack McDuff","duration":366.36689,"num_songs":1,"song_id":"SOBKNBZ12AB017DC7E","title":"Cap'n Jack","year":1999}
{"artist_id":"ARLXKAH1187B992876","artist_location":"","artist_name":"Camané","duration":137.69098,"num_songs":1,"song_id":"SOKCKJI12A8C139B7D","title":"Fecho Os Olhos P'Ra Dar (Live)","year":1995}
{"artist_id":"AR51T3E1187FB3B997","artist_latitude":60.17116,"artist_location":"Helsinki","artist_longitude":24.93258,"artist_name":"Poverty Stinks","duration":176.37832,"num_songs":1,"song_id":"SOGBMLK12A8C139989","title":"Now Now Now","year":1990}
{"artist_id":"ARSF0K11187B9AF319","artist_location":"London, England","artist_name":"James Taylor","duration":280.81587,"num_songs":1,"song_id":"SOXPVJS12A8C1326A8","title":"One More Go Round","year":0}
{"artist_id":"AR1VG6L1187B999D3F","artist_latitude":50.44332,"artist_location":"Cornwall, England","artist_longitude":-4.93986,"artist_name":"Subhumans","duration":186.51383,"num_songs":1,"song_id":"SOXIXMQ12A8C142026","title":"The Scheme","year":0}
{"artist_id":"ARKA8M21187B99529C","artist_location":"","artist_name":"Boban Markovic Orkestar","duration":224.39138,"num_songs":1,"song_id":"SOASXMM12A6D4FB2EF","title":"Mere Yaara Dildara","year":2003}
{"artist_id":"AROPLMX12592CDA2DA","artist_location":"Brooklyn NY","artist_name":"Small Black","duration":213.89016,"num_songs":1,"song_id":"SOPYNBO12AB018BD8C","title":"Pleasant Experience","year":2009}
{"artist_id":"AR9BVRM1187FB51139","artist_latitude":32.67828,"artist_location":"Georgia","artist_longitude":-83.22295,"artist_name":"Hallows Eve","duration":346.67057,"num_songs":1,"song_id":"SOOTBZQ12AB01836AE","title":"Goblet of Gore","year":1986}
{"artist_id":"ARC3MYV1187B98A531","artist_latitude":34.185,"artist_location":"Thousand Oaks, CA","artist_longitude":-118.89425,"artist_name":"Halifax","duration":194.87302,"num_songs":1,"song_id":"SOMLWUA12A8C13F131","title":"Hey Italy","year":2006}
{"artist_id":"AR2WN631187B99DA0B","artist_location":"","artist_name":"The Randy Rogers Band","duration":292.75383,"num_songs":1,"song_id":"SOGSZJE12AF72A082E","title":"Before I Believe It's True","year":0}
{"artist_id":"ARQXV1A1187FB3D5CC","artist_location":"","artist_name":"Karsh Kale","duration":358.66077,"num_songs":1,"song_id":"SOVGFUV12A8C14422B","title":"Destroy the Icon (Bone Cruise Mix)","year":2002}
{"artist_id":"ARPYDQA11F4C83E331","artist_location":"","artist_name":"Nancy Sinatra And Lee Hazlewood","duration":159.76444,"num_songs":1,"song_id":"SOXGCZI12A8C139BCF","title":"Sundown_ Sundown","year":0}
{"artist_id":"AR2CNWZ1187FB3B1CB","artist_latitude":33.86404,"artist_location":"Hermosa Beach, CA","artist_longitude":-118.39535,"artist_name":"98 Mute","duration":133.92934,"num_songs":1,"song_id":"SOVZOCY12AC468F2F1","title":"Short Fuse","year":1998}
{"artist_id":"ARQGYP71187FB44566","artist_latitude":34.31109,"artist_location":"Mineola, AR","artist_longitude":-94.02978,"artist_name":"Jimmy Wakely","duration":178.1024,"num_songs":1,"song_id":"SOQNFQI12AB018882C","title":"Mine All Mine","year":2005}
{"artist_id":"ARFEOJM1187B9AA3B8","artist_location":"Baltimore, MD","artist_name":"Sisqo / Dru Hill","duration":80.45669,"num_songs":1,"song_id":"SOCIDXF12A6D4F6655","title":"Dru World Order","year":1999}
{"artist_id":"ARNU9GF1187B9A3F06","artist_location":"","artist_name":"Carpathian Forest","duration":61.85751,"num_songs":1,"song_id":"SONPEPE12A8C13FBFB","title":"Intro \u0013 Damnation Chant","year":2000}
{"artist_id":"ARZ1IDQ1187B9A9ECC","artist_latitude":45.51179,"artist_location":"Portland, OR","artist_longitude":-122.67563,"artist_name":"Wet Confetti","duration":278.69995,"num_songs":1,"song_id":"SOYIOXK12AB0182E53","title":"Invincible","year":2007}
{"artist_id":"AR0JPOG1187FB37383","artist_location":"Japan","artist_name":"Lyrics Born","duration":445.49179,"num_songs":1,"song_id":"SOAZUSH12A58A7A561","title":"Stop Complaining/Remix/Jam","year":2006}
{"artist_id":"AR3OYPP1187B9952E3","artist_latitude":53.34376,"artist_location":"Dublin, Ireland","artist_longitude":-6.24953,"artist_name":"Humanzi","duration":274.99057,"num_songs":1,"song_id":"SOTBMWN12A6D4F58CD","title":"Fix The Cracks","year":2006}
{"artist_id":"ARVL7X81187B989EED","artist_latitude":42.31256,"artist_location":"Mass. - Boston","artist_longitude":-71.08868,"artist_name":"Dinky","duration":205.81832,"num_songs":1,"song_id":"SOFYNQX12AB018B8E1","title":"Home On a Sunday","year":2006}
{"artist_id":"ARM6I4G1187FB54C15","artist_location":"","artist_name":"Chesney Hawkes","duration":245.52444,"num_songs":1,"song_id":"SOSDZSG12A58A7CC19","title":"What's Wrong With This Picture","year":2007}
{"artist_id":"ARDFZ8B1187B988E81","artist_latitude":42.31256,"artist_location":"Mass. - Boston","artist_longitude":-71.08868,"artist_name":"Strangeways","duration":179.17342,"num_songs":1,"song_id":"SOYNIDJ12A8C1431FD","title":"Hold Tight","year":1986}
{"artist_id":"ARSLAVY1187B9BA622","artist_latitude":47.60356,"artist_location":"Seattle, WA","artist_longitude":-122.32944,"artist_name":"Stacie Orrico","duration":194.61179,"num_songs":1,"song_id":"SODRFIB12A6D4F7119","title":"Hesitation","year":2003}
{"artist_id":"ARBY4Y11187B99B2FD","artist_location":"","artist_name":"Labi Siffre","duration":394.44853,"num_songs":1,"song_id":"SOAPIKT12A58A7CD16","title":"I Got The... (2006 Digital Remaster)","year":0}
{"artist_id":"ARJYD111187FB3AC15","artist_location":"LaGrange, GA","artist_name":"Bubba Sparxxx","duration":213.9424,"num_songs":1,"song_id":"SOFQQFY12A6D4F931C","title":"Heat It Up (A Cappella)","year":0}
{"artist_id":"ARE8IV91187B9919AE","artist_location":"Lawrence, MA","artist_name":"Robert Goulet","duration":170.16118,"num_songs":1,"song_id":"SOCQYVN12A8C133C75","title":"My Love_ Forgive Me","year":1989}
{"artist_id":"ARC43071187B990240","artist_location":"Wisner, LA","artist_name":"Wayne Watson","duration":245.21098,"num_songs":1,"song_id":"SOKEJEJ12A8C13E0D0","title":"The Urgency (LP Version)","year":0}
{"artist_id":"ARPTKAK1187FB5308A","artist_location":"","artist_name":"Plus One","duration":308.87138,"num_songs":1,"song_id":"SONAAEB12AB018A443","title":"What Child Is This? (Album Version)","year":2002}
{"artist_id":"AR6GME21187FB58F39","artist_location":"LAKE WORTH, Florida","artist_name":"Antoine Clamaran","duration":441.88689,"num_songs":1,"song_id":"SOUXJJP12AB0181239","title":"Get Down","year":2008}
{"artist_id":"ARXDGV71187B990B08","artist_latitude":34.35919,"artist_location":"Darling, MS","artist_longitude":-90.27585,"artist_name":"Super Chikan","duration":212.74077,"num_songs":1,"song_id":"SOXQUAN12A8C14237B","title":"Big Boy Now","year":2000}
{"artist_id":"ARVZDOM1187B9B49C9","artist_location":"Brooklyn, NY","artist_name":"Barry Manilow","duration":298.9971,"num_songs":1,"song_id":"SOEGWEI12A8C143182","title":"Some Bar By The Harbor","year":0}
{"artist_id":"ARPVZTA1187B9A63A8","artist_location":"","artist_name":"Lil Scrappy / Homeboy","duration":262.24281,"num_songs":1,"song_id":"SOEOTGM12AB018AE44","title":"Never Be Nothing Like Me","year":0}
{"artist_id":"AR9ODB41187FB459B2","artist_location":"SPRINGFIELD, Virginia","artist_name":"Organized Konfusion","duration":198.3473,"num_songs":1,"song_id":"SOFXNQP12AB0184F1A","title":"Hate","year":1997}
{"artist_id":"AR60ODO1187FB4D9AB","artist_latitude":40.5725,"artist_location":"Staten Island, NY","artist_longitude":-74.154,"artist_name":"Joan Baez","duration":211.3824,"num_songs":1,"song_id":"SOBMCII12AB017CE19","title":"In The Pines","year":1982}
{"artist_id":"ARMYO7M1187B993DAF","artist_latitude":37.27188,"artist_location":"California","artist_longitude":-119.27023,"artist_name":"Deadlock","duration":364.56444,"num_songs":1,"song_id":"SOTXSWJ12A8AE4805C","title":"We Shall All Bleed","year":0}
{"artist_id":"ARKDO731187B98E21B","artist_location":"","artist_name":"Béla Fleck","duration":223.13751,"num_songs":1,"song_id":"SOZUNHU12A8C137BB7","title":"Moto Perpetuo_ Op. 11_ No. 2","year":2001}
{"artist_id":"ARIUA0B1187B9A08D5","artist_latitude":36.71832,"artist_location":"Malaga, Spain","artist_longitude":-4.42016,"artist_name":"Chambao","duration":260.07465,"num_songs":1,"song_id":"SOBVKUK12A8C140A8A","title":"Camino Interior","year":2005}
{"artist_id":"ARQNTEC12086C1584B","artist_location":"","artist_name":"Alex Gaudino_ Jason Rooney","duration":334.602,"num_songs":1,"song_id":"SOFKRVM12AAF3B429F","title":"I Love Rock N' Roll","year":2009}
{"artist_id":"ARA58Y01187FB4566A","artist_latitude":39.96196,"artist_location":"Columbus, OH","artist_longitude":-83.00298,"artist_name":"G.G. Anderson","duration":183.50975,"num_songs":1,"song_id":"SOXRZJS12A8C1396AB","title":"Luna Luna Du","year":0}
{"artist_id":"AR1ON8N1187B98FE42","artist_latitude":33.62646,"artist_location":"South Carolina","artist_longitude":-80.9474,"artist_name":"Pur","duration":55.50975,"num_songs":1,"song_id":"SOTTVUH12A6D4F81CE","title":"Merlins Brücke","year":2006}
{"artist_id":"ARW5S821187FB3F681","artist_latitude":51.91892,"artist_location":"Poland","artist_longitude":19.1343,"artist_name":"Justyna Steczkowska","duration":213.36771,"num_songs":1,"song_id":"SOYZMCH12A8C1361B7","title":"Tatuuj Mnie","year":1996}
{"artist_id":"ARZCHLM1187FB495C3","artist_location":"Brooklyn, NY","artist_name":"Ray Barretto","duration":348.76036,"num_songs":1,"song_id":"SOZNQQQ12AF72ABF9F","title":"Vine Pa'echar Candela","year":0}
{"artist_id":"ARVUI9A1187FB39AAA","artist_location":"Liverpool, England","artist_name":"Anathema","duration":401.52771,"num_songs":1,"song_id":"SOZLLTY12A8C132D24","title":"The Sweet Suffering","year":0}
{"artist_id":"ARWSMC91187B9AD369","artist_latitude":51.48126,"artist_location":"Cardiff, Wales","artist_longitude":-3.18067,"artist_name":"Helen Love","duration":143.15057,"num_songs":1,"song_id":"SOBUVXZ12AC9075605","title":"Calm Down Dad","year":0}
{"artist_id":"ARDFZE61187FB45994","artist_latitude":35.83073,"artist_location":"Tennessee","artist_longitude":-85.97874,"artist_name":"Jake Hess","duration":168.77669,"num_songs":1,"song_id":"SOVKHXD12A67020C86","title":"So Many Reasons","year":2004}
{"artist_id":"AR6BH431187B9B0DC9","artist_location":"","artist_name":"Novalima","duration":397.21751,"num_songs":1,"song_id":"SOSYWTW12AB0188626","title":"Coba Guarango (Toni Economides Remix)","year":0}
{"artist_id":"ARWJ1BY1187B998F28","artist_location":"","artist_name":"Reigning Sound","duration":149.99465,"num_songs":1,"song_id":"SOSQTJH12A6D4F5C56","title":"I Don't Know How To Tell You","year":2002}
{"artist_id":"AR99FU41187FB38E9E","artist_latitude":51.50632,"artist_location":"London, England","artist_longitude":-0.12714,"artist_name":"Ikara Colt","duration":183.71873,"num_songs":1,"song_id":"SOSXZFO12A67ADCE92","title":"Belgravia","year":2002}
{"artist_id":"AR3DLBB1187B98F3DF","artist_location":"Staunton, VA","artist_name":"The Statler Brothers","duration":201.27302,"num_songs":1,"song_id":"SOHWHCE12A8C133385","title":"Shenandoah","year":1967}
{"artist_id":"ARAUA5K1187B9AA95F","artist_location":"Oslo, Norway","artist_name":"Hanne Hukkelberg","duration":240.01261,"num_songs":1,"song_id":"SOAWTXJ12A8C13EBE2","title":"The North Wind","year":2007}
{"artist_id":"ARGP47U1187FB4D0EB","artist_location":"Sheffield, Yorkshire, England","artist_name":"ABC","duration":188.26404,"num_songs":1,"song_id":"SORANYU12A6D4F7736","title":"Bite The Hand","year":0}
{"artist_id":"AR2BG0R1187FB398C3","artist_latitude":29.59733,"artist_location":"Houma, LA","artist_longitude":-90.71913,"artist_name":"Dax Riggs","duration":150.15138,"num_songs":1,"song_id":"SOTVTCG12AB018ABEB","title":"Radiation Blues","year":2007}
{"artist_id":"AROLOHV1187FB4231D","artist_location":"","artist_name":"Lightspeed Champion","duration":162.84689,"num_songs":1,"song_id":"SOGHDII12A8C130FDC","title":"Tell Me What It's Worth","year":2007}
{"artist_id":"ARJY2XG1187FB3D6E6","artist_latitude":38.36601,"artist_location":"Great Bend, KS","artist_longitude":-98.76514,"artist_name":"Karrin Allyson","duration":396.77342,"num_songs":1,"song_id":"SOCELDQ12AB0180F85","title":"Naima","year":2002}
{"artist_id":"ARA80CI1187B991D9D","artist_latitude":56.87968,"artist_location":"Vaxjo, Sweden","artist_longitude":14.79938,"artist_name":"Melody Club","duration":218.14812,"num_songs":1,"song_id":"SONRVHT12A8C138E9C","title":"Winterland","year":2004}
{"artist_id":"AR83G9J1187FB3C094","artist_location":"Everett, WA","artist_name":"Kenny Loggins","duration":307.30404,"num_songs":1,"song_id":"SOATOPX12A8C1337A2","title":"Angels In The Snow","year":1998}
{"artist_id":"AR3CT4R1187B9B39FE","artist_latitude":40.71455,"artist_location":"New York","artist_longitude":-74.00712,"artist_name":"Doug Wimbish","duration":80.74404,"num_songs":1,"song_id":"SOVDJTI12A8C139C55","title":"Pass It Around","year":1999}
{"artist_id":"ARNDL191187FB51583","artist_location":"Seattle, USA","artist_name":"Jimi Hendrix","duration":469.60281,"num_songs":1,"song_id":"SODYMIJ12AB018C2D5","title":"Once I Had A Woman","year":1975}
{"artist_id":"AR6ETQ11187B9B006C","artist_latitude":46.22809,"artist_location":"Sion, Switzerland","artist_longitude":7.35885,"artist_name":"Samael","duration":210.75546,"num_songs":1,"song_id":"SOCICRL12AAA8C6BB2","title":"Illumination","year":2009}
{"artist_id":"AREACYD1187FB566DE","artist_latitude":55.0503,"artist_location":"Gweedore, Donegal, Ireland","artist_longitude":-8.23194,"artist_name":"Enya","duration":259.86567,"num_songs":1,"song_id":"SOAKYDR12A6D4F7800","title":"Exile","year":1988}
{"artist_id":"ART4EPR1187FB38772","artist_latitude":52.0953,"artist_location":"Great Britain / UK","artist_longitude":1.31388,"artist_name":"Eno","duration":316.99546,"num_songs":1,"song_id":"SOXZMDS12A8C1354C7","title":"Baby's On Fire","year":1973}
{"artist_id":"AR9LT7R1187FB4543A","artist_latitude":30.16602,"artist_location":"Brenham, TX","artist_longitude":-96.39998,"artist_name":"Darden Smith","duration":234.73587,"num_songs":1,"song_id":"SOAXEJI12A6D4FCE3E","title":"Mill Creek","year":2004}
{"artist_id":"ARV2HUG1187B9ACD08","artist_latitude":48.13641,"artist_location":"Munich, Germany","artist_longitude":11.57752,"artist_name":"Fauna Flash","duration":335.49016,"num_songs":1,"song_id":"SOHZJIH12AB018B3B9","title":"Tel Aviv","year":2001}
{"artist_id":"ARI4S0E1187B9B06C0","artist_latitude":35.83073,"artist_location":"Tennessee","artist_longitude":-85.97874,"artist_name":"David Arkenstone","duration":508.89098,"num_songs":1,"song_id":"SOICYYA12A8C136A31","title":"Reflections","year":0}
